$GPGSA,A,1,,,,,,,,,,,,,,,*1E
$GPGSV,1,1,0,,,,,,,,,,,,,,,,*49
$GNGST,,,,,,,,,*65
$GNVTG,,,,,,,*60
$GPGSA,A,1,,,,,,,,,,,,,,,*1E
$GPGSV,1,1,0,,,,,,,,,,,,,,,,*49
$GNGST,,,,,,,,,*65
$GNVTG,,,,,,,*60
$GPGSA,A,1,,,,,,,,,,,,,,,*1E
$GPGSV,1,1,0,,,,,,,,,,,,,,,,*49
$GNGST,,,,,,,,,*65
$GNVTG,,,,,,,*60
$GPGSA,A,1,,,,,,,,,,,,,,,*1E
$GPGSV,1,1,0,,,,,,,,,,,,,,,,*49
$GNGST,,,,,,,,,*65
$GNVTG,,,,,,,*60
$GPGSA,A,1,,,,,,,,,,,,,,,*1E
$GPGSV,1,1,0,,,,,,,,,,,,,,,,*49
$GNGST,,,,,,,,,*65
$GNVTG,,,,,,,*60
$GPGSA,A,1,,,,,,,,,,,,,,,*1E
$GPGSV,1,1,0,,,,,,,,,,,,,,,,*49
$GNGST,,,,,,,,,*65
$GNVTG,,,,,,,*60
$GPGSA,A,1,,,,,,,,,,,,,,,*1E
$GPGSV,1,1,0,,,,,,,,,,,,,,,,*49
$GNGST,,,,,,,,,*65
$GNVTG,,,,,,,*60
$GPGSA,A,1,,,,,,,,,,,,,,,*1E
$GPGSV,1,1,0,,,,,,,,,,,,,,,,*49
$GNGST,,,,,,,,,*65
$GNVTG,,,,,,,*60
$GPGSA,A,1,,,,,,,,,,,,,,,*1E
$GPGSV,1,1,0,,,,,,,,,,,,,,,,*49
$GNGST,,,,,,,,,*65
$GNVTG,,,,,,,*60
$GPGSA,A,1,,,,,,,,,,,,,,,*1E
$GPGSV,1,1,0,,,,,,,,,,,,,,,,*49
$GNGST,,,,,,,,,*65
$GNVTG,,,,,,,*60
$GPGSA,A,1,,,,,,,,,,,,,,,*1E
$GPGSV,1,1,0,,,,,,,,,,,,,,,,*49
$GNGST,,,,,,,,,*65
$GNVTG,,,,,,,*60
$GPGSA,A,1,,,,,,,,,,,,,,,*1E
$GPGSV,1,1,0,,,,,,,,,,,,,,,,*49
$GNGST,,,,,,,,,*65
$GNVTG,,,,,,,*60
$GPGSA,A,1,,,,,,,,,,,,,,,*1E
$GPGSV,1,1,0,,,,,,,,,,,,,,,,*49
$GNGST,,,,,,,,,*65
$GNVTG,,,,,,,*60
$GPGSA,A,1,,,,,,,,,,,,,,,*1E
$GPGSV,1,1,0,,,,,,,,,,,,,,,,*49
$GNGST,,,,,,,,,*65
$GNVTG,,,,,,,*60
$GPGSA,A,1,,,,,,,,,,,,,,,*1E
$GPGSV,1,1,0,,,,,,,,,,,,,,,,*49
$GNGST,,,,,,,,,*65
$GNVTG,,,,,,,*60
$GPGSA,A,1,,,,,,,,,,,,,,,*1E
$GPGSV,1,1,0,,,,,,,,,,,,,,,,*49
$GNGST,,,,,,,,,*65
$GNVTG,,,,,,,*60
$GPGSA,A,1,,,,,,,,,,,,,,,*1E
$GPGSV,1,1,0,,,,,,,,,,,,,,,,*49
$GNGST,,,,,,,,,*65
$GNVTG,,,,,,,*60
$GPGSA,A,1,,,,,,,,,,,,,,,*1E
$GPGSV,1,1,0,,,,,,,,,,,,,,,,*49
$GNGST,,,,,,,,,*65
$GNVTG,,,,,,,*60
$GPGSA,A,1,,,,,,,,,,,,,,,*1E
$GPGSV,1,1,0,,,,,,,,,,,,,,,,*49
$GNGST,,,,,,,,,*65
$GNVTG,,,,,,,*60
$GPGSA,A,1,,,,,,,,,,,,,,,*1E
$GPGSV,1,1,0,,,,,,,,,,,,,,,,*49
$GNGST,,,,,,,,,*65
$GNVTG,,,,,,,*60
$GPGSA,A,1,,,,,,,,,,,,,,,*1E
$GPGSV,1,1,0,,,,,,,,,,,,,,,,*49
$GNGST,,,,,,,,,*65
$GNVTG,,,,,,,*60
$GPGSA,A,1,,,,,,,,,,,,,,,*1E
$GPGSV,1,1,0,,,,,,,,,,,,,,,,*49
$GNGST,,,,,,,,,*65
$GNVTG,,,,,,,*60
$GPGSA,A,1,,,,,,,,,,,,,,,*1E
$GPGSV,1,1,0,,,,,,,,,,,,,,,,*49
$GNGST,,,,,,,,,*65
$GNVTG,,,,,,,*60
$GPGSA,A,1,,,,,,,,,,,,,,,*1E
$GPGSV,1,1,0,,,,,,,,,,,,,,,,*49
$GNGST,,,,,,,,,*65
$GNVTG,,,,,,,*60
$GPGSA,A,1,,,,,,,,,,,,,,,*1E
$GPGSV,1,1,0,,,,,,,,,,,,,,,,*49
$GNGST,,,,,,,,,*65
$GNVTG,,,,,,,*60
$GPGSA,A,1,,,,,,,,,,,,,,,*1E
$GPGSV,1,1,0,,,,,,,,,,,,,,,,*49
$GNGST,,,,,,,,,*65
$GNVTG,,,,,,,*60
$GPGSA,A,1,,,,,,,,,,,,,,,*1E
$GPGSV,1,1,0,,,,,,,,,,,,,,,,*49
$GNGST,,,,,,,,,*65
$GNVTG,,,,,,,*60
$GPGSA,A,1,,,,,,,,,,,,,,,*1E
$GPGSV,1,1,0,,,,,,,,,,,,,,,,*49
$GNGST,,,,,,,,,*65
$GNVTG,,,,,,,*60
$GPGSA,A,1,,,,,,,,,,,,,,,*1E
$GPGSV,1,1,0,,,,,,,,,,,,,,,,*49
$GNGST,,,,,,,,,*65
$GNVTG,,,,,,,*60
$GPGSA,A,1,,,,,,,,,,,,,,,*1E
$GPGSV,1,1,0,,,,,,,,,,,,,,,,*49
$GNGST,,,,,,,,,*65
$GNVTG,,,,,,,*60
$GPGSA,A,1,,,,,,,,,,,,,,,*1E
$GPGSV,1,1,0,,,,,,,,,,,,,,,,*49
$GNGST,,,,,,,,,*65
$GNVTG,,,,,,,*60
$GPGSA,A,1,,,,,,,,,,,,,,,*1E
$GPGSV,1,1,0,,,,,,,,,,,,,,,,*49
$GNGST,,,,,,,,,*65
$GNVTG,,,,,,,*60
$GPGSA,A,1,,,,,,,,,,,,,,,*1E
$GPGSV,1,1,0,,,,,,,,,,,,,,,,*49
$GNGST,,,,,,,,,*65
$GNVTG,,,,,,,*60
$GPGSA,A,1,,,,,,,,,,,,,,,*1E
$GPGSV,1,1,0,,,,,,,,,,,,,,,,*49
$GNGST,,,,,,,,,*65
$GNVTG,,,,,,,*60
$GPGSA,A,1,,,,,,,,,,,,,,,*1E
$GPGSV,1,1,0,,,,,,,,,,,,,,,,*49
$GNGST,,,,,,,,,*65
$GNVTG,,,,,,,*60
$GPGSA,A,1,,,,,,,,,,,,,,,*1E
$GPGSV,1,1,0,,,,,,,,,,,,,,,,*49
$GNGST,,,,,,,,,*65
$GNVTG,,,,,,,*60
$GPGSA,A,1,,,,,,,,,,,,,,,*1E
$GPGSV,1,1,0,,,,,,,,,,,,,,,,*49
$GNGST,,,,,,,,,*65
$GNVTG,,,,,,,*60
$GPGSA,A,1,,,,,,,,,,,,,,,*1E
$GPGSV,1,1,0,,,,,,,,,,,,,,,,*49
$GNGST,,,,,,,,,*65
$GNVTG,,,,,,,*60
$GPGSA,A,1,,,,,,,,,,,,,,,*1E
$GPGSV,1,1,0,,,,,,,,,,,,,,,,*49
$GNGST,,,,,,,,,*65
$GNVTG,,,,,,,*60
$GPGSA,A,1,,,,,,,,,,,,,,,*1E
$GPGSV,1,1,0,,,,,,,,,,,,,,,,*49
$GNGST,,,,,,,,,*65
$GNVTG,,,,,,,*60
$GPGSA,A,1,,,,,,,,,,,,,,,*1E
$GPGSV,1,1,0,,,,,,,,,,,,,,,,*49
$GNGST,,,,,,,,,*65
$GNVTG,,,,,,,*60
$GPGSA,A,1,,,,,,,,,,,,,,,*1E
$GPGSV,1,1,0,,,,,,,,,,,,,,,,*49
$GNGST,,,,,,,,,*65
$GNVTG,,,,,,,*60
$GPGSA,A,1,,,,,,,,,,,,,,,*1E
$GPGSV,1,1,0,,,,,,,,,,,,,,,,*49
$GNGST,,,,,,,,,*65
$GNVTG,,,,,,,*60
$GPGSA,A,1,,,,,,,,,,,,,,,*1E
$GPGSV,1,1,0,,,,,,,,,,,,,,,,*49
$GNGST,,,,,,,,,*65
$GNVTG,,,,,,,*60
$GPGSA,A,1,,,,,,,,,,,,,,,*1E
$GPGSV,1,1,0,,,,,,,,,,,,,,,,*49
$GNGST,,,,,,,,,*65
$GNVTG,,,,,,,*60
$GPGSA,A,1,,,,,,,,,,,,,,,*1E
$GPGSV,1,1,0,,,,,,,,,,,,,,,,*49
$GNGST,,,,,,,,,*65
$GNVTG,,,,,,,*60
$GPGSA,A,1,,,,,,,,,,,,,,,*1E
$GPGSV,1,1,0,,,,,,,,,,,,,,,,*49
$GNGST,,,,,,,,,*65
$GNVTG,,,,,,,*60
$GPGSA,A,1,,,,,,,,,,,,,,,*1E
$GPGSV,1,1,0,,,,,,,,,,,,,,,,*49
$GNGST,,,,,,,,,*65
$GNVTG,,,,,,,*60
$GPGSA,A,1,,,,,,,,,,,,,,,*1E
$GPGSV,1,1,0,,,,,,,,,,,,,,,,*49
$GNGST,,,,,,,,,*65
$GNVTG,,,,,,,*60
$GPGSA,A,1,,,,,,,,,,,,,,,*1E
$GPGSV,1,1,0,,,,,,,,,,,,,,,,*49
$GNGST,,,,,,,,,*65
$GNVTG,,,,,,,*60
$GPGSA,A,1,,,,,,,,,,,,,,,*1E
$GPGSV,1,1,0,,,,,,,,,,,,,,,,*49
$GNGST,,,,,,,,,*65
$GNVTG,,,,,,,*60
$GPGSA,A,1,,,,,,,,,,,,,,,*1E
$GPGSV,1,1,0,,,,,,,,,,,,,,,,*49
$GNGST,,,,,,,,,*65
$GNVTG,,,,,,,*60
$GPGSA,A,1,,,,,,,,,,,,,,,*1E
$GPGSV,1,1,0,,,,,,,,,,,,,,,,*49
$GNGST,,,,,,,,,*65
$GNVTG,,,,,,,*60
$GPGSA,A,1,,,,,,,,,,,,,,,*1E
$GPGSV,1,1,0,,,,,,,,,,,,,,,,*49
$GNGST,,,,,,,,,*65
$GNVTG,,,,,,,*60
$GPGSA,A,1,,,,,,,,,,,,,,,*1E
$GPGSV,1,1,0,,,,,,,,,,,,,,,,*49
$GNGST,,,,,,,,,*65
$GNVTG,,,,,,,*60
$GPGSA,A,1,,,,,,,,,,,,,,,*1E
$GPGSV,1,1,0,,,,,,,,,,,,,,,,*49
$GNGST,,,,,,,,,*65
$GNVTG,,,,,,,*60
$GPGSA,A,1,,,,,,,,,,,,,,,*1E
$GPGSV,1,1,0,,,,,,,,,,,,,,,,*49
$GNGST,,,,,,,,,*65
$GNVTG,,,,,,,*60
$GPGSA,A,1,,,,,,,,,,,,,,,*1E
$GPGSV,1,1,0,,,,,,,,,,,,,,,,*49
$GNGST,,,,,,,,,*65
$GNVTG,,,,,,,*60
$GPGSA,A,1,,,,,,,,,,,,,,,*1E
$GPGSV,1,1,0,,,,,,,,,,,,,,,,*49
$GNGST,,,,,,,,,*65
$GNVTG,,,,,,,*60
$GPGSA,A,1,,,,,,,,,,,,,,,*1E
$GPGSV,1,1,0,,,,,,,,,,,,,,,,*49
$GNGST,,,,,,,,,*65
$GNVTG,,,,,,,*60
$GPGSA,A,1,,,,,,,,,,,,,,,*1E
$GPGSV,1,1,0,,,,,,,,,,,,,,,,*49
$GNGST,,,,,,,,,*65
$GNVTG,,,,,,,*60
$GPGSA,A,1,,,,,,,,,,,,,,,*1E
$GPGSV,1,1,0,,,,,,,,,,,,,,,,*49
$GNGST,,,,,,,,,*65
$GNVTG,,,,,,,*60
$GPGSA,A,1,,,,,,,,,,,,,,,*1E
$GPGSV,1,1,0,,,,,,,,,,,,,,,,*49
$GNGST,,,,,,,,,*65
$GNVTG,,,,,,,*60
$GPGSA,A,1,,,,,,,,,,,,,,,*1E
$GPGSV,1,1,0,,,,,,,,,,,,,,,,*49
$GNGST,,,,,,,,,*65
$GNVTG,,,,,,,*60
$GPGSA,A,1,,,,,,,,,,,,,,,*1E
$GPGSV,1,1,0,,,,,,,,,,,,,,,,*49
$GNGST,,,,,,,,,*65
$GNVTG,,,,,,,*60
$GPGSA,A,1,,,,,,,,,,,,,,,*1E
$GPGSV,1,1,0,,,,,,,,,,,,,,,,*49
$GNGST,,,,,,,,,*65
$GNVTG,,,,,,,*60
$GPGSA,A,1,,,,,,,,,,,,,,,*1E
$GPGSV,1,1,0,,,,,,,,,,,,,,,,*49
$GNGST,,,,,,,,,*65
$GNVTG,,,,,,,*60
$GPGSA,A,1,,,,,,,,,,,,,,,*1E
$GPGSV,1,1,0,,,,,,,,,,,,,,,,*49
$GNGST,,,,,,,,,*65
$GNVTG,,,,,,,*60
$GPGSA,A,1,,,,,,,,,,,,,,,*1E
$GPGSV,1,1,0,,,,,,,,,,,,,,,,*49
$GNGST,,,,,,,,,*65
$GNVTG,,,,,,,*60
$GPGSA,A,1,,,,,,,,,,,,,,,*1E
$GPGSV,1,1,0,,,,,,,,,,,,,,,,*49
$GNGST,,,,,,,,,*65
$GNVTG,,,,,,,*60
$GPGSA,A,1,,,,,,,,,,,,,,,*1E
$GPGSV,1,1,0,,,,,,,,,,,,,,,,*49
$GNGST,,,,,,,,,*65
$GNVTG,,,,,,,*60
$GPGSA,A,1,,,,,,,,,,,,,,,*1E
$GPGSV,1,1,0,,,,,,,,,,,,,,,,*49
$GNGST,,,,,,,,,*65
$GNVTG,,,,,,,*60
$GPGSA,A,1,,,,,,,,,,,,,,,*1E
$GPGSV,1,1,0,,,,,,,,,,,,,,,,*49
$GNGST,,,,,,,,,*65
$GNVTG,,,,,,,*60
$GPGSA,A,1,,,,,,,,,,,,,,,*1E
$GPGSV,1,1,0,,,,,,,,,,,,,,,,*49
$GNGST,,,,,,,,,*65
$GNVTG,,,,,,,*60
$GPGSA,A,1,,,,,,,,,,,,,,,*1E
$GPGSV,1,1,0,,,,,,,,,,,,,,,,*49
$GNGST,,,,,,,,,*65
$GNVTG,,,,,,,*60
$GPGSA,A,1,,,,,,,,,,,,,,,*1E
$GPGSV,1,1,0,,,,,,,,,,,,,,,,*49
$GNGST,,,,,,,,,*65
$GNVTG,,,,,,,*60
$GPGSA,A,1,,,,,,,,,,,,,,,*1E
$GPGSV,1,1,0,,,,,,,,,,,,,,,,*49
$GNGST,,,,,,,,,*65
$GNVTG,,,,,,,*60
$GPGSA,A,1,,,,,,,,,,,,,,,*1E
$GPGSV,1,1,0,,,,,,,,,,,,,,,,*49
$GNGST,,,,,,,,,*65
$GNVTG,,,,,,,*60
$GPGSA,A,1,,,,,,,,,,,,,,,*1E
$GPGSV,1,1,0,,,,,,,,,,,,,,,,*49
$GNGST,,,,,,,,,*65
$GNVTG,,,,,,,*60
$GPGSA,A,1,,,,,,,,,,,,,,,*1E
$GPGSV,1,1,0,,,,,,,,,,,,,,,,*49
$GNGST,,,,,,,,,*65
$GNVTG,,,,,,,*60
$GPGSA,A,1,,,,,,,,,,,,,,,*1E
$GPGSV,1,1,0,,,,,,,,,,,,,,,,*49
$GNGST,,,,,,,,,*65
$GNVTG,,,,,,,*60
$GPGSA,A,1,,,,,,,,,,,,,,,*1E
$GPGSV,1,1,0,,,,,,,,,,,,,,,,*49
$GNGST,,,,,,,,,*65
$GNVTG,,,,,,,*60
$GPGSA,A,1,,,,,,,,,,,,,,,*1E
$GPGSV,1,1,0,,,,,,,,,,,,,,,,*49
$GNGST,,,,,,,,,*65
$GNVTG,,,,,,,*60
$GPGSA,A,1,,,,,,,,,,,,,,,*1E
$GPGSV,1,1,0,,,,,,,,,,,,,,,,*49
$GNGST,,,,,,,,,*65
$GNVTG,,,,,,,*60
$GPGSA,A,1,,,,,,,,,,,,,,,*1E
$GPGSV,1,1,0,,,,,,,,,,,,,,,,*49
$GNGST,,,,,,,,,*65
$GNVTG,,,,,,,*60
$GPGSA,A,1,,,,,,,,,,,,,,,*1E
$GPGSV,1,1,0,,,,,,,,,,,,,,,,*49
$GNGST,,,,,,,,,*65
$GNVTG,,,,,,,*60
$GPGSA,A,1,,,,,,,,,,,,,,,*1E
$GPGSV,1,1,0,,,,,,,,,,,,,,,,*49
$GNGST,,,,,,,,,*65
$GNVTG,,,,,,,*60
$GPGSA,A,1,,,,,,,,,,,,,,,*1E
$GPGSV,1,1,0,,,,,,,,,,,,,,,,*49
$GNGST,,,,,,,,,*65
$GNVTG,,,,,,,*60
$GPGSA,A,1,,,,,,,,,,,,,,,*1E
$GPGSV,1,1,0,,,,,,,,,,,,,,,,*49
$GNGST,,,,,,,,,*65
$GNVTG,,,,,,,*60
$GPGSA,A,1,,,,,,,,,,,,,,,*1E
$GPGSV,1,1,0,,,,,,,,,,,,,,,,*49
$GNGST,,,,,,,,,*65
$GNVTG,,,,,,,*60
$GPGSA,A,1,,,,,,,,,,,,,,,*1E
$GPGSV,1,1,0,,,,,,,,,,,,,,,,*49
$GNGST,,,,,,,,,*65
$GNVTG,,,,,,,*60
$GPGSA,A,1,,,,,,,,,,,,,,,*1E
$GPGSV,1,1,0,,,,,,,,,,,,,,,,*49
$GNGST,,,,,,,,,*65
$GNVTG,,,,,,,*60
$GPGSA,A,1,,,,,,,,,,,,,,,*1E
$GPGSV,1,1,0,,,,,,,,,,,,,,,,*49
$GNGST,,,,,,,,,*65
$GNVTG,,,,,,,*60
$GPGSA,A,1,,,,,,,,,,,,,,,*1E
$GPGSV,1,1,0,,,,,,,,,,,,,,,,*49
$GNGST,,,,,,,,,*65
$GNVTG,,,,,,,*60
$GPGSA,A,1,,,,,,,,,,,,,,,*1E
$GPGSV,1,1,0,,,,,,,,,,,,,,,,*49
$GNGST,,,,,,,,,*65
$GNVTG,,,,,,,*60
$GPGSA,A,1,,,,,,,,,,,,,,,*1E
$GPGSV,1,1,0,,,,,,,,,,,,,,,,*49
$GNGST,,,,,,,,,*65
$GNVTG,,,,,,,*60
$GPGSA,A,1,,,,,,,,,,,,,,,*1E
$GPGSV,1,1,0,,,,,,,,,,,,,,,,*49
$GNGST,,,,,,,,,*65
$GNVTG,,,,,,,*60
$GPGSA,A,1,,,,,,,,,,,,,,,*1E
$GPGSV,1,1,0,,,,,,,,,,,,,,,,*49
$GNGST,,,,,,,,,*65
$GNVTG,,,,,,,*60
$GPGSA,A,1,,,,,,,,,,,,,,,*1E
$GPGSV,1,1,0,,,,,,,,,,,,,,,,*49
$GNGST,,,,,,,,,*65
$GNVTG,,,,,,,*60
$GPGSA,A,1,,,,,,,,,,,,,,,*1E
$GPGSV,1,1,0,,,,,,,,,,,,,,,,*49
$GNGST,,,,,,,,,*65
$GNVTG,,,,,,,*60
$GPGSA,A,1,,,,,,,,,,,,,,,*1E
$GPGSV,1,1,0,,,,,,,,,,,,,,,,*49
$GNGST,,,,,,,,,*65
$GNVTG,,,,,,,*60
$GPGSA,A,1,,,,,,,,,,,,,,,*1E
$GPGSV,1,1,0,,,,,,,,,,,,,,,,*49
$GNGST,,,,,,,,,*65
$GNVTG,,,,,,,*60
$GPGSA,A,1,,,,,,,,,,,,,,,*1E
$GPGSV,1,1,0,,,,,,,,,,,,,,,,*49
$GNGST,,,,,,,,,*65
$GNVTG,,,,,,,*60
$GPGSA,A,1,,,,,,,,,,,,,,,*1E
$GPGSV,1,1,0,,,,,,,,,,,,,,,,*49
$GNGST,,,,,,,,,*65
$GNVTG,,,,,,,*60
$GPGSA,A,1,,,,,,,,,,,,,,,*1E
$GPGSV,1,1,0,,,,,,,,,,,,,,,,*49
$GNGST,,,,,,,,,*65
$GNVTG,,,,,,,*60
$GPGSA,A,1,,,,,,,,,,,,,,,*1E
$GPGSV,1,1,0,,,,,,,,,,,,,,,,*49
$GNGST,,,,,,,,,*65
$GNVTG,,,,,,,*60
$GPGSA,A,1,,,,,,,,,,,,,,,*1E
$GPGSV,1,1,0,,,,,,,,,,,,,,,,*49
$GNGST,,,,,,,,,*65
$GNVTG,,,,,,,*60
$GPGSA,A,1,,,,,,,,,,,,,,,*1E
$GPGSV,1,1,0,,,,,,,,,,,,,,,,*49
$GNGST,,,,,,,,,*65
$GNVTG,,,,,,,*60
$GPGSA,A,1,,,,,,,,,,,,,,,*1E
$GPGSV,1,1,0,,,,,,,,,,,,,,,,*49
$GNGST,,,,,,,,,*65
$GNVTG,,,,,,,*60
$GPGSA,A,1,,,,,,,,,,,,,,,*1E
$GPGSV,1,1,0,,,,,,,,,,,,,,,,*49
$GNGST,,,,,,,,,*65
$GNVTG,,,,,,,*60
$GPGSA,A,1,,,,,,,,,,,,,,,*1E
$GPGSV,1,1,0,,,,,,,,,,,,,,,,*49
$GNGST,,,,,,,,,*65
$GNVTG,,,,,,,*60
$GPGSA,A,1,,,,,,,,,,,,,,,*1E
$GPGSV,1,1,0,,,,,,,,,,,,,,,,*49
$GNGST,,,,,,,,,*65
$GNVTG,,,,,,,*60
$GPGSA,A,1,,,,,,,,,,,,,,,*1E
$GPGSV,1,1,0,,,,,,,,,,,,,,,,*49
$GNGST,,,,,,,,,*65
$GNVTG,,,,,,,*60
$GPGSA,A,1,,,,,,,,,,,,,,,*1E
$GPGSV,1,1,0,,,,,,,,,,,,,,,,*49
$GNGST,,,,,,,,,*65
$GNVTG,,,,,,,*60
$GNRMC,101340.20,A,5546.3257779,N,03740.2448730,E,0.11,,190220,,,A*55
$GNGGA,101340.20,5546.3257779,N,03740.2448730,E,1,06,1.1,143.842,M,14.595,M,0.0,*5D
$GPGSA,A,3,28,30,,,,,,,,,,,0.0,0.0,0.0*3B
$GLGSA,A,3,66,76,,,,,,,,,,,0.0,0.0,0.0*2F
$GAGSA,A,3,03,25,,,,,,,,,,,0.0,0.0,0.0*27
$GPGSV,1,1,02,28,68,180,51,30,64,101,49,,,,,,,,,1*63
$GLGSV,1,1,02,66,38,205,42,76,75,035,45,,,,,,,,,1*74
$GAGSV,1,1,02,03,57,248,41,25,66,229,47,,,,,,,,,7*76
$GNGST,101340.20,0.000,,,,14.230,16.156,32.017*54
$GNVTG,,T,,M,0.11,N,0.21,K,A*3E
$GNRMC,101340.40,A,5546.3258803,N,03740.2447216,E,0.08,,190220,,,A*58
$GNGGA,101340.40,5546.3258803,N,03740.2447216,E,1,06,1.1,143.573,M,14.595,M,0.0,*57
$GPGSA,A,3,28,30,,,,,,,,,,,0.0,0.0,0.0*3B
$GLGSA,A,3,66,76,,,,,,,,,,,0.0,0.0,0.0*2F
$GAGSA,A,3,03,25,,,,,,,,,,,0.0,0.0,0.0*27
$GPGSV,1,1,02,28,68,180,51,30,64,101,49,,,,,,,,,1*63
$GLGSV,1,1,02,66,38,205,42,76,75,035,45,,,,,,,,,1*74
$GAGSV,1,1,02,03,57,248,41,25,66,229,47,,,,,,,,,7*76
$GNGST,101340.40,0.000,,,,14.230,16.157,32.015*51
$GNVTG,,T,,M,0.08,N,0.16,K,A*32
$GNRMC,101340.60,A,5546.3258516,N,03740.2447334,E,0.07,,190220,,,A*5D
$GNGGA,101340.60,5546.3258516,N,03740.2447334,E,1,06,1.1,143.435,M,14.595,M,0.0,*5E
$GPGSA,A,3,28,30,,,,,,,,,,,0.0,0.0,0.0*3B
$GLGSA,A,3,66,76,,,,,,,,,,,0.0,0.0,0.0*2F
$GAGSA,A,3,03,25,,,,,,,,,,,0.0,0.0,0.0*27
$GPGSV,1,1,02,28,68,180,51,30,64,101,49,,,,,,,,,1*63
$GLGSV,1,1,02,66,38,205,42,76,75,035,45,,,,,,,,,1*74
$GAGSV,1,1,02,03,57,248,41,25,66,229,48,,,,,,,,,7*79
$GNGST,101340.60,0.000,,,,14.229,16.158,32.014*55
$GNVTG,,T,,M,0.07,N,0.13,K,A*38
$GNRMC,101340.80,A,5546.3259349,N,03740.2445896,E,0.10,,190220,,,A*59
$GNGGA,101340.80,5546.3259349,N,03740.2445896,E,1,06,1.1,143.071,M,14.595,M,0.0,*58
$GPGSA,A,3,28,30,,,,,,,,,,,0.0,0.0,0.0*3B
$GLGSA,A,3,66,76,,,,,,,,,,,0.0,0.0,0.0*2F
$GAGSA,A,3,03,25,,,,,,,,,,,0.0,0.0,0.0*27
$GPGSV,1,1,02,28,68,180,51,30,64,101,49,,,,,,,,,1*63
$GLGSV,1,1,02,66,38,205,42,76,75,035,45,,,,,,,,,1*74
$GAGSV,1,1,02,03,57,248,41,25,66,229,48,,,,,,,,,7*79
$GNGST,101340.80,0.000,,,,14.229,16.159,32.012*5C
$GNVTG,,T,,M,0.10,N,0.18,K,A*35
$GNRMC,101341.00,A,5546.3258986,N,03740.2445721,E,0.08,,190220,,,A*52
$GNGGA,101341.00,5546.3258986,N,03740.2445721,E,1,06,1.1,143.252,M,14.595,M,0.0,*59
$GPGSA,A,3,28,30,,,,,,,,,,,0.0,0.0,0.0*3B
$GLGSA,A,3,66,76,,,,,,,,,,,0.0,0.0,0.0*2F
$GAGSA,A,3,03,25,,,,,,,,,,,0.0,0.0,0.0*27
$GPGSV,1,1,02,28,68,180,51,30,64,101,49,,,,,,,,,1*63
$GLGSV,1,1,02,66,38,205,43,76,75,035,45,,,,,,,,,1*75
$GAGSV,1,1,02,03,57,248,41,25,66,229,48,,,,,,,,,7*79
$GNGST,101341.00,0.000,,,,14.229,16.160,32.010*5D
$GNVTG,,T,,M,0.08,N,0.15,K,A*31
$GNRMC,101341.20,A,5546.3259937,N,03740.2444182,E,0.11,,190220,,,A*5D
$GNGGA,101341.20,5546.3259937,N,03740.2444182,E,1,06,1.1,142.923,M,14.595,M,0.0,*52
$GPGSA,A,3,28,30,,,,,,,,,,,0.0,0.0,0.0*3B
$GLGSA,A,3,66,76,,,,,,,,,,,0.0,0.0,0.0*2F
$GAGSA,A,3,03,25,,,,,,,,,,,0.0,0.0,0.0*27
$GPGSV,1,1,02,28,68,180,51,30,64,101,49,,,,,,,,,1*63
$GLGSV,1,1,02,66,38,205,43,76,75,035,45,,,,,,,,,1*75
$GAGSV,1,1,02,03,57,248,41,25,66,229,48,,,,,,,,,7*79
$GNGST,101341.20,0.000,,,,14.229,16.161,32.008*57
$GNVTG,,T,,M,0.11,N,0.19,K,A*35
$GNRMC,101341.40,A,5546.3260468,N,03740.2443521,E,0.13,,190220,,,A*5E
$GNGGA,101341.40,5546.3260468,N,03740.2443521,E,1,06,1.1,142.725,M,14.595,M,0.0,*5B
$GPGSA,A,3,28,30,,,,,,,,,,,0.0,0.0,0.0*3B
$GLGSA,A,3,66,76,,,,,,,,,,,0.0,0.0,0.0*2F
$GAGSA,A,3,03,25,,,,,,,,,,,0.0,0.0,0.0*27
$GPGSV,1,1,02,28,68,180,51,30,64,101,49,,,,,,,,,1*63
$GLGSV,1,1,02,66,38,205,43,76,75,035,45,,,,,,,,,1*75
$GAGSV,1,1,02,03,57,248,41,25,66,229,48,,,,,,,,,7*79
$GNGST,101341.40,0.000,,,,14.229,16.162,32.006*5C
$GNVTG,,T,,M,0.13,N,0.23,K,A*3E
$GNRMC,101341.60,A,5546.3260784,N,03740.2443305,E,0.12,,190220,,,A*5C
$GNGGA,101341.60,5546.3260784,N,03740.2443305,E,1,06,1.1,142.567,M,14.595,M,0.0,*5C
$GPGSA,A,3,28,30,,,,,,,,,,,0.0,0.0,0.0*3B
$GLGSA,A,3,66,76,,,,,,,,,,,0.0,0.0,0.0*2F
$GAGSA,A,3,03,25,,,,,,,,,,,0.0,0.0,0.0*27
$GPGSV,1,1,02,28,68,180,51,30,64,101,49,,,,,,,,,1*63
$GLGSV,1,1,02,66,38,205,43,76,75,035,45,,,,,,,,,1*75
$GAGSV,1,1,02,03,57,247,41,25,66,229,48,,,,,,,,,7*76
$GNGST,101341.60,0.000,,,,14.229,16.163,32.004*5D
$GNVTG,,T,,M,0.12,N,0.22,K,A*3E
$GNRMC,101341.80,A,5546.3260987,N,03740.2443554,E,0.15,,190220,,,A*5A
$GNGGA,101341.80,5546.3260987,N,03740.2443554,E,1,06,1.1,142.443,M,14.595,M,0.0,*5A
$GPGSA,A,3,28,30,,,,,,,,,,,0.0,0.0,0.0*3B
$GLGSA,A,3,66,76,,,,,,,,,,,0.0,0.0,0.0*2F
$GAGSA,A,3,03,25,,,,,,,,,,,0.0,0.0,0.0*27
$GPGSV,1,1,02,28,68,180,51,30,64,101,49,,,,,,,,,1*63
$GLGSV,1,1,02,66,38,205,43,76,75,035,45,,,,,,,,,1*75
$GAGSV,1,1,02,03,57,247,41,25,66,229,48,,,,,,,,,7*76
$GNGST,101341.80,0.000,,,,14.229,16.164,32.003*53
$GNVTG,,T,,M,0.15,N,0.28,K,A*33
$GNRMC,101342.00,A,5546.3260905,N,03740.2443873,E,0.09,,190220,,,A*5E
$GNGGA,101342.00,5546.3260905,N,03740.2443873,E,1,06,1.1,142.444,M,14.595,M,0.0,*54
$GPGSA,A,3,28,30,,,,,,,,,,,0.0,0.0,0.0*3B
$GLGSA,A,3,66,76,,,,,,,,,,,0.0,0.0,0.0*2F
$GAGSA,A,3,03,25,,,,,,,,,,,0.0,0.0,0.0*27
$GPGSV,1,1,02,28,68,180,51,30,64,101,49,,,,,,,,,1*63
$GLGSV,1,1,02,66,38,205,42,76,74,035,44,,,,,,,,,1*74
$GAGSV,1,1,02,03,57,247,41,25,66,229,48,,,,,,,,,7*76
$GNGST,101342.00,0.000,,,,14.229,16.165,32.001*5B
$GNVTG,,T,,M,0.09,N,0.16,K,A*33
$GNRMC,101342.20,A,5546.3260915,N,03740.2444129,E,0.13,,190220,,,A*57
$GNGGA,101342.20,5546.3260915,N,03740.2444129,E,1,06,1.1,142.378,M,14.595,M,0.0,*5E
$GPGSA,A,3,28,30,,,,,,,,,,,0.0,0.0,0.0*3B
$GLGSA,A,3,66,76,,,,,,,,,,,0.0,0.0,0.0*2F
$GAGSA,A,3,03,25,,,,,,,,,,,0.0,0.0,0.0*27
$GPGSV,1,1,02,28,68,180,51,30,64,101,49,,,,,,,,,1*63
$GLGSV,1,1,02,66,38,205,42,76,74,035,45,,,,,,,,,1*75
$GAGSV,1,1,02,03,57,247,41,25,66,229,48,,,,,,,,,7*76
$GNGST,101342.20,0.000,,,,14.229,16.165,31.999*52
$GNVTG,,T,,M,0.13,N,0.24,K,A*39
$GNRMC,101342.40,A,5546.3260921,N,03740.2444532,E,0.09,,190220,,,A*53
$GNGGA,101342.40,5546.3260921,N,03740.2444532,E,1,06,1.1,142.274,M,14.595,M,0.0,*5C
$GPGSA,A,3,28,30,,,,,,,,,,,0.0,0.0,0.0*3B
$GLGSA,A,3,66,76,,,,,,,,,,,0.0,0.0,0.0*2F
$GAGSA,A,3,03,25,,,,,,,,,,,0.0,0.0,0.0*27
$GPGSV,1,1,02,28,68,180,51,30,64,101,48,,,,,,,,,1*62
$GLGSV,1,1,02,66,38,205,43,76,74,035,45,,,,,,,,,1*74
$GAGSV,1,1,02,03,57,247,41,25,66,229,48,,,,,,,,,7*76
$GNGST,101342.40,0.000,,,,14.229,16.166,31.997*59
$GNVTG,,T,,M,0.09,N,0.18,K,A*3D
$GNRMC,101342.60,A,5546.3260703,N,03740.2445376,E,0.12,,190220,,,A*52
$GNGGA,101342.60,5546.3260703,N,03740.2445376,E,1,06,1.1,142.232,M,14.595,M,0.0,*55
$GPGSA,A,3,28,30,,,,,,,,,,,0.0,0.0,0.0*3B
$GLGSA,A,3,66,76,,,,,,,,,,,0.0,0.0,0.0*2F
$GAGSA,A,3,03,25,,,,,,,,,,,0.0,0.0,0.0*27
$GPGSV,1,1,02,28,68,180,51,30,64,101,48,,,,,,,,,1*62
$GLGSV,1,1,02,66,38,205,43,76,74,035,45,,,,,,,,,1*74
$GAGSV,1,1,02,03,57,247,41,25,66,229,48,,,,,,,,,7*76
$GNGST,101342.60,0.000,,,,14.229,16.167,31.995*58
$GNVTG,,T,,M,0.12,N,0.22,K,A*3E
$GNRMC,101342.80,A,5546.3260219,N,03740.2446404,E,0.13,,190220,,,A*52
$GNGGA,101342.80,5546.3260219,N,03740.2446404,E,1,06,1.1,142.326,M,14.595,M,0.0,*50
$GPGSA,A,3,28,30,,,,,,,,,,,0.0,0.0,0.0*3B
$GLGSA,A,3,66,76,,,,,,,,,,,0.0,0.0,0.0*2F
$GAGSA,A,3,03,25,,,,,,,,,,,0.0,0.0,0.0*27
$GPGSV,1,1,02,28,68,180,51,30,64,101,48,,,,,,,,,1*62
$GLGSV,1,1,02,66,38,205,43,76,74,035,45,,,,,,,,,1*74
$GAGSV,1,1,02,03,57,247,41,25,66,229,48,,,,,,,,,7*76
$GNGST,101342.80,0.000,,,,14.229,16.168,31.993*5F
$GNVTG,,T,,M,0.13,N,0.25,K,A*38
$GNRMC,101343.00,A,5546.3259907,N,03740.2446997,E,0.11,,190220,,,A*50
$GNGGA,101343.00,5546.3259907,N,03740.2446997,E,1,06,1.1,142.363,M,14.595,M,0.0,*51
$GPGSA,A,3,28,30,,,,,,,,,,,0.0,0.0,0.0*3B
$GLGSA,A,3,66,76,,,,,,,,,,,0.0,0.0,0.0*2F
$GAGSA,A,3,03,25,,,,,,,,,,,0.0,0.0,0.0*27
$GPGSV,1,1,02,28,68,180,51,30,64,101,48,,,,,,,,,1*62
$GLGSV,1,1,02,66,38,205,43,76,74,035,45,,,,,,,,,1*74
$GAGSV,1,1,02,03,57,247,41,25,66,229,48,,,,,,,,,7*76
$GNGST,101343.00,0.000,,,,14.229,16.169,31.992*56
$GNVTG,,T,,M,0.11,N,0.20,K,A*3F
$GNRMC,101343.20,A,5546.3259477,N,03740.2447663,E,0.09,,190220,,,A*54
$GNGGA,101343.20,5546.3259477,N,03740.2447663,E,1,06,1.1,142.455,M,14.595,M,0.0,*5E
$GPGSA,A,3,28,30,,,,,,,,,,,0.0,0.0,0.0*3B
$GLGSA,A,3,66,76,,,,,,,,,,,0.0,0.0,0.0*2F
$GAGSA,A,3,03,25,,,,,,,,,,,0.0,0.0,0.0*27
$GPGSV,1,1,02,28,68,180,51,30,64,101,48,,,,,,,,,1*62
$GLGSV,1,1,02,66,38,205,43,76,74,035,45,,,,,,,,,1*74
$GAGSV,1,1,02,03,57,247,41,25,66,229,48,,,,,,,,,7*76
$GNGST,101343.20,0.000,,,,14.229,16.170,31.990*5E
$GNVTG,,T,,M,0.09,N,0.17,K,A*32
$GNRMC,101343.40,A,5546.3259138,N,03740.2447988,E,0.09,,190220,,,A*56
$GNGGA,101343.40,5546.3259138,N,03740.2447988,E,1,06,1.1,142.502,M,14.595,M,0.0,*5F
$GPGSA,A,3,28,30,,,,,,,,,,,0.0,0.0,0.0*3B
$GLGSA,A,3,66,76,,,,,,,,,,,0.0,0.0,0.0*2F
$GAGSA,A,3,03,25,,,,,,,,,,,0.0,0.0,0.0*27
$GPGSV,1,1,02,28,68,180,51,30,64,101,48,,,,,,,,,1*62
$GLGSV,1,1,02,66,38,205,43,76,74,035,45,,,,,,,,,1*74
$GAGSV,1,1,02,03,57,247,41,25,66,229,48,,,,,,,,,7*76
$GNGST,101343.40,0.000,,,,14.229,16.171,31.988*50
$GNVTG,,T,,M,0.09,N,0.16,K,A*33
$GNRMC,101343.60,A,5546.3259047,N,03740.2447842,E,0.10,,190220,,,A*52
$GNGGA,101343.60,5546.3259047,N,03740.2447842,E,1,06,1.1,142.503,M,14.595,M,0.0,*52
$GPGSA,A,3,28,30,,,,,,,,,,,0.0,0.0,0.0*3B
$GLGSA,A,3,66,76,,,,,,,,,,,0.0,0.0,0.0*2F
$GAGSA,A,3,03,25,,,,,,,,,,,0.0,0.0,0.0*27
$GPGSV,1,1,02,28,68,180,51,30,64,101,48,,,,,,,,,1*62
$GLGSV,1,1,02,66,38,205,43,76,74,035,45,,,,,,,,,1*74
$GAGSV,1,1,02,03,57,247,41,25,66,229,48,,,,,,,,,7*76
$GNGST,101343.60,0.000,,,,14.229,16.172,31.986*5F
$GNVTG,,T,,M,0.10,N,0.18,K,A*35
$GNRMC,101343.80,A,5546.3258937,N,03740.2447673,E,0.11,,190220,,,A*5E
$GNGGA,101343.80,5546.3258937,N,03740.2447673,E,1,06,1.1,142.514,M,14.595,M,0.0,*59
$GPGSA,A,3,28,30,,,,,,,,,,,0.0,0.0,0.0*3B
$GLGSA,A,3,66,76,,,,,,,,,,,0.0,0.0,0.0*2F
$GAGSA,A,3,03,25,,,,,,,,,,,0.0,0.0,0.0*27
$GPGSV,1,1,02,28,68,180,51,30,64,101,48,,,,,,,,,1*62
$GLGSV,1,1,02,66,38,205,43,76,74,035,45,,,,,,,,,1*74
$GAGSV,1,1,02,03,57,247,41,25,66,229,48,,,,,,,,,7*76
$GNGST,101343.80,0.000,,,,14.229,16.173,31.984*52
$GNVTG,,T,,M,0.11,N,0.20,K,A*3F
$GNRMC,101344.00,A,5546.3258806,N,03740.2447564,E,0.09,,190220,,,A*5E
$GNGGA,101344.00,5546.3258806,N,03740.2447564,E,1,06,1.1,142.519,M,14.595,M,0.0,*5D
$GPGSA,A,3,28,30,,,,,,,,,,,0.0,0.0,0.0*3B
$GLGSA,A,3,66,76,,,,,,,,,,,0.0,0.0,0.0*2F
$GAGSA,A,3,03,25,,,,,,,,,,,0.0,0.0,0.0*27
$GPGSV,1,1,02,28,68,180,51,30,64,101,48,,,,,,,,,1*62
$GLGSV,1,1,02,66,38,205,43,76,74,035,45,,,,,,,,,1*74
$GAGSV,1,1,02,03,57,247,41,25,66,229,48,,,,,,,,,7*76
$GNGST,101344.00,0.000,,,,14.229,16.174,31.982*5C
$GNVTG,,T,,M,0.09,N,0.17,K,A*32
$GNRMC,101344.20,A,5546.3258725,N,03740.2447305,E,0.09,,190220,,,A*53
$GNGGA,101344.20,5546.3258725,N,03740.2447305,E,1,06,1.1,142.530,M,14.595,M,0.0,*5B
$GPGSA,A,3,28,30,,,,,,,,,,,0.0,0.0,0.0*3B
$GLGSA,A,3,66,76,,,,,,,,,,,0.0,0.0,0.0*2F
$GAGSA,A,3,03,25,,,,,,,,,,,0.0,0.0,0.0*27
$GPGSV,1,1,02,28,68,179,51,30,64,101,48,,,,,,,,,1*64
$GLGSV,1,1,02,66,38,205,43,76,74,035,45,,,,,,,,,1*74
$GAGSV,1,1,02,03,57,247,41,25,66,229,48,,,,,,,,,7*76
$GNGST,101344.20,0.000,,,,14.229,16.174,31.981*5D
$GNVTG,,T,,M,0.09,N,0.16,K,A*33
$GNRMC,101344.40,A,5546.3258548,N,03740.2447192,E,0.08,,190220,,,A*51
$GNGGA,101344.40,5546.3258548,N,03740.2447192,E,1,06,1.1,142.579,M,14.595,M,0.0,*55
$GPGSA,A,3,28,30,,,,,,,,,,,0.0,0.0,0.0*3B
$GLGSA,A,3,66,76,,,,,,,,,,,0.0,0.0,0.0*2F
$GAGSA,A,3,03,25,,,,,,,,,,,0.0,0.0,0.0*27
$GPGSV,1,1,02,28,68,179,51,30,64,101,49,,,,,,,,,1*65
$GLGSV,1,1,02,66,38,205,44,76,74,035,45,,,,,,,,,1*73
$GAGSV,1,1,02,03,57,247,42,25,66,229,48,,,,,,,,,7*75
$GNGST,101344.40,0.000,,,,14.229,16.175,31.979*5D
$GNVTG,,T,,M,0.08,N,0.15,K,A*31
$GNRMC,101344.60,A,5546.3258538,N,03740.2446936,E,0.11,,190220,,,A*5B
$GNGGA,101344.60,5546.3258538,N,03740.2446936,E,1,06,1.1,142.586,M,14.595,M,0.0,*57
$GPGSA,A,3,28,30,,,,,,,,,,,0.0,0.0,0.0*3B
$GLGSA,A,3,66,76,,,,,,,,,,,0.0,0.0,0.0*2F
$GAGSA,A,3,03,25,,,,,,,,,,,0.0,0.0,0.0*27
$GPGSV,1,1,02,28,68,179,51,30,64,101,49,,,,,,,,,1*65
$GLGSV,1,1,02,66,38,205,44,76,74,035,45,,,,,,,,,1*73
$GAGSV,1,1,02,03,57,247,42,25,66,229,48,,,,,,,,,7*75
$GNGST,101344.60,0.000,,,,14.229,16.176,31.977*52
$GNVTG,,T,,M,0.11,N,0.21,K,A*3E
$GNRMC,101344.80,A,5546.3258376,N,03740.2446860,E,0.08,,190220,,,A*53
$GNGGA,101344.80,5546.3258376,N,03740.2446860,E,1,06,1.1,142.638,M,14.595,M,0.0,*51
$GPGSA,A,3,28,30,,,,,,,,,,,0.0,0.0,0.0*3B
$GLGSA,A,3,66,76,,,,,,,,,,,0.0,0.0,0.0*2F
$GAGSA,A,3,03,25,,,,,,,,,,,0.0,0.0,0.0*27
$GPGSV,1,1,02,28,69,179,51,30,64,101,49,,,,,,,,,1*64
$GLGSV,1,1,02,66,38,205,44,76,74,035,45,,,,,,,,,1*73
$GAGSV,1,1,02,03,57,247,42,25,66,229,48,,,,,,,,,7*75
$GNGST,101344.80,0.000,,,,14.229,16.177,31.975*5F
$GNVTG,,T,,M,0.08,N,0.15,K,A*31
$GNRMC,101345.00,A,5546.3258266,N,03740.2446722,E,0.07,,190220,,,A*5C
$GNGGA,101345.00,5546.3258266,N,03740.2446722,E,1,06,1.1,142.647,M,14.595,M,0.0,*59
$GPGSA,A,3,28,30,,,,,,,,,,,0.0,0.0,0.0*3B
$GLGSA,A,3,66,76,,,,,,,,,,,0.0,0.0,0.0*2F
$GAGSA,A,3,03,25,,,,,,,,,,,0.0,0.0,0.0*27
$GPGSV,1,1,02,28,69,179,51,30,64,101,49,,,,,,,,,1*64
$GLGSV,1,1,02,66,38,205,44,76,74,035,45,,,,,,,,,1*73
$GAGSV,1,1,02,03,57,247,42,25,66,229,48,,,,,,,,,7*75
$GNGST,101345.00,0.000,,,,14.228,16.178,31.973*5E
$GNVTG,,T,,M,0.07,N,0.12,K,A*39
$GNRMC,101345.20,A,5546.3258112,N,03740.2446811,E,0.06,,190220,,,A*50
$GNGGA,101345.20,5546.3258112,N,03740.2446811,E,1,06,1.1,142.662,M,14.595,M,0.0,*53
$GPGSA,A,3,28,30,,,,,,,,,,,0.0,0.0,0.0*3B
$GLGSA,A,3,66,76,,,,,,,,,,,0.0,0.0,0.0*2F
$GAGSA,A,3,03,25,,,,,,,,,,,0.0,0.0,0.0*27
$GPGSV,1,1,02,28,69,179,51,30,64,101,49,,,,,,,,,1*64
$GLGSV,1,1,02,66,38,205,44,76,74,035,45,,,,,,,,,1*73
$GAGSV,1,1,02,03,57,247,42,25,66,229,48,,,,,,,,,7*75
$GNGST,101345.20,0.000,,,,14.228,16.179,31.971*5F
$GNVTG,,T,,M,0.06,N,0.10,K,A*3A
$GNRMC,101345.40,A,5546.3257978,N,03740.2446884,E,0.12,,190220,,,A*54
$GNGGA,101345.40,5546.3257978,N,03740.2446884,E,1,06,1.1,142.680,M,14.595,M,0.0,*5E
$GPGSA,A,3,28,30,,,,,,,,,,,0.0,0.0,0.0*3B
$GLGSA,A,3,66,76,,,,,,,,,,,0.0,0.0,0.0*2F
$GAGSA,A,3,03,25,,,,,,,,,,,0.0,0.0,0.0*27
$GPGSV,1,1,02,28,69,179,51,30,64,101,48,,,,,,,,,1*65
$GLGSV,1,1,02,66,38,205,45,76,74,035,45,,,,,,,,,1*72
$GAGSV,1,1,02,03,57,247,42,25,66,229,48,,,,,,,,,7*75
$GNGST,101345.40,0.000,,,,14.228,16.180,31.970*5E
$GNVTG,,T,,M,0.12,N,0.23,K,A*3F
$GNRMC,101345.60,A,5546.3257794,N,03740.2447095,E,0.07,,190220,,,A*57
$GNGGA,101345.60,5546.3257794,N,03740.2447095,E,1,06,1.1,142.714,M,14.595,M,0.0,*55
$GPGSA,A,3,28,30,,,,,,,,,,,0.0,0.0,0.0*3B
$GLGSA,A,3,66,76,,,,,,,,,,,0.0,0.0,0.0*2F
$GAGSA,A,3,03,25,,,,,,,,,,,0.0,0.0,0.0*27
$GPGSV,1,1,02,28,69,179,51,30,64,101,48,,,,,,,,,1*65
$GLGSV,1,1,02,66,38,205,45,76,74,035,45,,,,,,,,,1*72
$GAGSV,1,1,02,03,57,247,42,25,66,229,48,,,,,,,,,7*75
$GNGST,101345.60,0.000,,,,14.228,16.181,31.968*54
$GNVTG,,T,,M,0.07,N,0.13,K,A*38
$GNRMC,101345.80,A,5546.3257613,N,03740.2447525,E,0.17,,190220,,,A*58
$GNGGA,101345.80,5546.3257613,N,03740.2447525,E,1,06,1.1,142.748,M,14.595,M,0.0,*52
$GPGSA,A,3,28,30,,,,,,,,,,,0.0,0.0,0.0*3B
$GLGSA,A,3,66,76,,,,,,,,,,,0.0,0.0,0.0*2F
$GAGSA,A,3,03,25,,,,,,,,,,,0.0,0.0,0.0*27
$GPGSV,1,1,02,28,69,179,51,30,64,101,48,,,,,,,,,1*65
$GLGSV,1,1,02,66,38,205,45,76,74,035,45,,,,,,,,,1*72
$GAGSV,1,1,02,03,57,247,42,25,66,229,47,,,,,,,,,7*7A
$GNGST,101345.80,0.000,,,,14.228,16.182,31.966*57
$GNVTG,,T,,M,0.17,N,0.32,K,A*3A
$GNRMC,101346.00,A,5546.3257591,N,03740.2447763,E,0.15,,190220,,,A*58
$GNGGA,101346.00,5546.3257591,N,03740.2447763,E,1,06,1.1,142.712,M,14.595,M,0.0,*5F
$GPGSA,A,3,28,30,,,,,,,,,,,0.0,0.0,0.0*3B
$GLGSA,A,3,66,76,,,,,,,,,,,0.0,0.0,0.0*2F
$GAGSA,A,3,03,25,,,,,,,,,,,0.0,0.0,0.0*27
$GPGSV,1,1,02,28,69,179,51,30,64,101,48,,,,,,,,,1*65
$GLGSV,1,1,02,66,38,205,45,76,74,035,45,,,,,,,,,1*72
$GAGSV,1,1,02,03,57,247,42,25,66,229,47,,,,,,,,,7*7A
$GNGST,101346.00,0.000,,,,14.228,16.183,31.964*5F
$GNVTG,,T,,M,0.15,N,0.27,K,A*3C
$GNRMC,101346.20,A,5546.3257680,N,03740.2447763,E,0.17,,190220,,,A*5B
$GNGGA,101346.20,5546.3257680,N,03740.2447763,E,1,06,1.1,142.662,M,14.595,M,0.0,*58
$GPGSA,A,3,28,30,,,,,,,,,,,0.0,0.0,0.0*3B
$GLGSA,A,3,66,76,,,,,,,,,,,0.0,0.0,0.0*2F
$GAGSA,A,3,03,25,,,,,,,,,,,0.0,0.0,0.0*27
$GPGSV,1,1,02,28,69,179,51,30,64,101,48,,,,,,,,,1*65
$GLGSV,1,1,02,66,38,205,45,76,74,035,45,,,,,,,,,1*72
$GAGSV,1,1,02,03,57,247,42,25,66,229,47,,,,,,,,,7*7A
$GNGST,101346.20,0.000,,,,14.228,16.183,31.962*5B
$GNVTG,,T,,M,0.17,N,0.32,K,A*3A
$GNRMC,101346.40,A,5546.3257747,N,03740.2447704,E,0.07,,190220,,,A*57
$GNGGA,101346.40,5546.3257747,N,03740.2447704,E,1,06,1.1,142.627,M,14.595,M,0.0,*54
$GPGSA,A,3,28,30,,,,,,,,,,,0.0,0.0,0.0*3B
$GLGSA,A,3,66,76,,,,,,,,,,,0.0,0.0,0.0*2F
$GAGSA,A,3,03,25,,,,,,,,,,,0.0,0.0,0.0*27
$GPGSV,1,1,02,28,69,179,51,30,64,101,48,,,,,,,,,1*65
$GLGSV,1,1,02,66,38,205,45,76,74,035,45,,,,,,,,,1*72
$GAGSV,1,1,02,03,57,247,42,25,66,229,47,,,,,,,,,7*7A
$GNGST,101346.40,0.000,,,,14.228,16.184,31.960*58
$GNVTG,,T,,M,0.07,N,0.13,K,A*38
$GNRMC,101346.60,A,5546.3257770,N,03740.2447731,E,0.07,,190220,,,A*57
$GNGGA,101346.60,5546.3257770,N,03740.2447731,E,1,06,1.1,142.573,M,14.595,M,0.0,*56
$GPGSA,A,3,28,30,,,,,,,,,,,0.0,0.0,0.0*3B
$GLGSA,A,3,66,76,,,,,,,,,,,0.0,0.0,0.0*2F
$GAGSA,A,3,03,25,,,,,,,,,,,0.0,0.0,0.0*27
$GPGSV,1,1,02,28,69,179,51,30,64,101,48,,,,,,,,,1*65
$GLGSV,1,1,02,66,38,205,45,76,74,035,45,,,,,,,,,1*72
$GAGSV,1,1,02,03,57,247,42,25,66,229,47,,,,,,,,,7*7A
$GNGST,101346.60,0.000,,,,14.228,16.185,31.959*51
$GNVTG,,T,,M,0.07,N,0.12,K,A*39
$GNRMC,101346.80,A,5546.3257665,N,03740.2447932,E,0.06,,190220,,,A*50
$GNGGA,101346.80,5546.3257665,N,03740.2447932,E,1,06,1.1,142.575,M,14.595,M,0.0,*56
$GPGSA,A,3,28,30,,,,,,,,,,,0.0,0.0,0.0*3B
$GLGSA,A,3,66,76,,,,,,,,,,,0.0,0.0,0.0*2F
$GAGSA,A,3,03,25,,,,,,,,,,,0.0,0.0,0.0*27
$GPGSV,1,1,02,28,69,179,51,30,64,101,48,,,,,,,,,1*65
$GLGSV,1,1,02,66,38,205,45,76,74,035,45,,,,,,,,,1*72
$GAGSV,1,1,02,03,57,247,42,25,66,229,47,,,,,,,,,7*7A
$GNGST,101346.80,0.000,,,,14.228,16.186,31.957*52
$GNVTG,,T,,M,0.06,N,0.11,K,A*3B
$GNRMC,101347.00,A,5546.3257316,N,03740.2448427,E,0.06,,190220,,,A*5E
$GNGGA,101347.00,5546.3257316,N,03740.2448427,E,1,06,1.1,142.637,M,14.595,M,0.0,*5D
$GPGSA,A,3,28,30,,,,,,,,,,,0.0,0.0,0.0*3B
$GLGSA,A,3,66,76,,,,,,,,,,,0.0,0.0,0.0*2F
$GAGSA,A,3,03,25,,,,,,,,,,,0.0,0.0,0.0*27
$GPGSV,1,1,02,28,69,179,51,30,64,101,48,,,,,,,,,1*65
$GLGSV,1,1,02,66,38,205,44,76,74,035,44,,,,,,,,,1*72
$GAGSV,1,1,02,03,57,247,44,25,66,229,47,,,,,,,,,7*7C
$GNGST,101347.00,0.000,,,,14.228,16.187,31.955*58
$GNVTG,,T,,M,0.06,N,0.10,K,A*3A
$GNRMC,101347.20,A,5546.3257420,N,03740.2447995,E,0.05,,190220,,,A*56
$GNGGA,101347.20,5546.3257420,N,03740.2447995,E,1,07,1.1,142.622,M,14.595,M,0.0,*53
$GPGSA,A,3,13,28,30,,,,,,,,,,0.0,0.0,0.0*39
$GLGSA,A,3,66,76,,,,,,,,,,,0.0,0.0,0.0*2F
$GAGSA,A,3,03,25,,,,,,,,,,,0.0,0.0,0.0*27
$GPGSV,1,1,03,13,64,274,35,28,69,179,51,30,64,101,48,,,,,1*53
$GLGSV,1,1,02,66,38,205,44,76,74,035,44,,,,,,,,,1*72
$GAGSV,1,1,02,03,57,247,43,25,66,229,47,,,,,,,,,7*7B
$GNGST,101347.20,0.182,,,,4.606,9.082,29.236*55
$GNVTG,,T,,M,0.05,N,0.10,K,A*39
$GNRMC,101347.40,A,5546.3257144,N,03740.2448377,E,0.08,,190220,,,A*53
$GNGGA,101347.40,5546.3257144,N,03740.2448377,E,1,07,1.1,142.695,M,14.595,M,0.0,*57
$GPGSA,A,3,13,28,30,,,,,,,,,,0.0,0.0,0.0*39
$GLGSA,A,3,66,76,,,,,,,,,,,0.0,0.0,0.0*2F
$GAGSA,A,3,03,25,,,,,,,,,,,0.0,0.0,0.0*27
$GPGSV,1,1,03,13,64,274,35,28,69,179,50,30,64,101,48,,,,,1*52
$GLGSV,1,1,02,66,38,205,43,76,74,035,44,,,,,,,,,1*75
$GAGSV,1,1,02,03,57,247,43,25,66,229,47,,,,,,,,,7*7B
$GNGST,101347.40,0.014,,,,4.606,9.082,29.234*5F
$GNVTG,,T,,M,0.08,N,0.15,K,A*31
$GNRMC,101347.60,A,5546.3256753,N,03740.2448917,E,0.08,,190220,,,A*5C
$GNGGA,101347.60,5546.3256753,N,03740.2448917,E,1,07,1.1,142.788,M,14.595,M,0.0,*55
$GPGSA,A,3,13,28,30,,,,,,,,,,0.0,0.0,0.0*39
$GLGSA,A,3,66,76,,,,,,,,,,,0.0,0.0,0.0*2F
$GAGSA,A,3,03,25,,,,,,,,,,,0.0,0.0,0.0*27
$GPGSV,1,1,03,13,64,274,36,28,69,179,50,30,64,101,48,,,,,1*51
$GLGSV,1,1,02,66,38,205,43,76,74,035,44,,,,,,,,,1*75
$GAGSV,1,1,02,03,57,247,42,25,66,229,47,,,,,,,,,7*7A
$GNGST,101347.60,0.018,,,,4.605,9.082,29.231*57
$GNVTG,,T,,M,0.08,N,0.14,K,A*30
$GNRMC,101347.80,A,5546.3256333,N,03740.2449489,E,0.09,,190220,,,A*5A
$GNGGA,101347.80,5546.3256333,N,03740.2449489,E,1,07,1.1,142.895,M,14.595,M,0.0,*51
$GPGSA,A,3,13,28,30,,,,,,,,,,0.0,0.0,0.0*39
$GLGSA,A,3,66,76,,,,,,,,,,,0.0,0.0,0.0*2F
$GAGSA,A,3,03,25,,,,,,,,,,,0.0,0.0,0.0*27
$GPGSV,1,1,03,13,64,274,36,28,69,179,50,30,64,101,49,,,,,1*50
$GLGSV,1,1,02,66,38,205,42,76,74,035,44,,,,,,,,,1*74
$GAGSV,1,1,02,03,57,247,42,25,66,229,48,,,,,,,,,7*75
$GNGST,101347.80,0.019,,,,4.605,9.082,29.229*51
$GNVTG,,T,,M,0.09,N,0.16,K,A*33
$GNRMC,101348.00,A,5546.3255905,N,03740.2450096,E,0.17,,190220,,,A*5C
$GNGGA,101348.00,5546.3255905,N,03740.2450096,E,1,07,1.1,143.008,M,14.595,M,0.0,*55
$GPGSA,A,3,13,28,30,,,,,,,,,,0.0,0.0,0.0*39
$GLGSA,A,3,66,76,,,,,,,,,,,0.0,0.0,0.0*2F
$GAGSA,A,3,03,25,,,,,,,,,,,0.0,0.0,0.0*27
$GPGSV,1,1,03,13,64,274,36,28,69,179,50,30,64,101,49,,,,,1*50
$GLGSV,1,1,02,66,38,205,42,76,74,035,44,,,,,,,,,1*74
$GAGSV,1,1,02,03,57,247,42,25,66,229,48,,,,,,,,,7*75
$GNGST,101348.00,0.059,,,,4.605,9.083,29.226*5C
$GNVTG,,T,,M,0.17,N,0.32,K,A*3A
$GNRMC,101348.20,A,5546.3255366,N,03740.2450902,E,0.12,,190220,,,A*50
$GNGGA,101348.20,5546.3255366,N,03740.2450902,E,1,07,1.1,143.152,M,14.595,M,0.0,*52
$GPGSA,A,3,13,28,30,,,,,,,,,,0.0,0.0,0.0*39
$GLGSA,A,3,66,76,,,,,,,,,,,0.0,0.0,0.0*2F
$GAGSA,A,3,03,25,,,,,,,,,,,0.0,0.0,0.0*27
$GPGSV,1,1,03,13,64,274,36,28,69,179,50,30,64,101,49,,,,,1*50
$GLGSV,1,1,02,66,38,205,43,76,74,035,44,,,,,,,,,1*75
$GAGSV,1,1,02,03,57,247,42,25,66,229,48,,,,,,,,,7*75
$GNGST,101348.20,0.075,,,,4.604,9.083,29.224*53
$GNVTG,,T,,M,0.12,N,0.22,K,A*3E
$GNRMC,101348.40,A,5546.3254702,N,03740.2451925,E,0.14,,190220,,,A*53
$GNGGA,101348.40,5546.3254702,N,03740.2451925,E,1,07,1.1,143.304,M,14.595,M,0.0,*56
$GPGSA,A,3,13,28,30,,,,,,,,,,0.0,0.0,0.0*39
$GLGSA,A,3,66,76,,,,,,,,,,,0.0,0.0,0.0*2F
$GAGSA,A,3,03,25,,,,,,,,,,,0.0,0.0,0.0*27
$GPGSV,1,1,03,13,64,274,36,28,69,179,50,30,64,101,50,,,,,1*58
$GLGSV,1,1,02,66,38,205,43,76,74,035,44,,,,,,,,,1*75
$GAGSV,1,1,02,03,57,247,42,25,66,229,48,,,,,,,,,7*75
$GNGST,101348.40,0.184,,,,4.604,9.083,29.221*5F
$GNVTG,,T,,M,0.14,N,0.25,K,A*3F
$GNRMC,101348.60,A,5546.3254130,N,03740.2452730,E,0.14,,190220,,,A*5F
$GNGGA,101348.60,5546.3254130,N,03740.2452730,E,1,07,1.1,143.429,M,14.595,M,0.0,*52
$GPGSA,A,3,13,28,30,,,,,,,,,,0.0,0.0,0.0*39
$GLGSA,A,3,66,76,,,,,,,,,,,0.0,0.0,0.0*2F
$GAGSA,A,3,03,25,,,,,,,,,,,0.0,0.0,0.0*27
$GPGSV,1,1,03,13,64,274,36,28,69,179,50,30,64,101,50,,,,,1*58
$GLGSV,1,1,02,66,38,205,43,76,74,035,44,,,,,,,,,1*75
$GAGSV,1,1,02,03,57,247,42,25,66,229,48,,,,,,,,,7*75
$GNGST,101348.60,0.174,,,,4.604,9.084,29.219*5E
$GNVTG,,T,,M,0.14,N,0.26,K,A*3C
$GNRMC,101348.80,A,5546.3253491,N,03740.2453562,E,0.10,,190220,,,A*58
$GNGGA,101348.80,5546.3253491,N,03740.2453562,E,1,07,1.1,143.586,M,14.595,M,0.0,*55
$GPGSA,A,3,13,28,30,,,,,,,,,,0.0,0.0,0.0*39
$GLGSA,A,3,66,76,,,,,,,,,,,0.0,0.0,0.0*2F
$GAGSA,A,3,03,25,,,,,,,,,,,0.0,0.0,0.0*27
$GPGSV,1,1,03,13,64,274,35,28,69,179,50,30,64,101,50,,,,,1*5B
$GLGSV,1,1,02,66,38,205,43,76,74,035,44,,,,,,,,,1*75
$GAGSV,1,1,02,03,57,247,41,25,66,229,48,,,,,,,,,7*76
$GNGST,101348.80,0.212,,,,4.603,9.084,29.216*5B
$GNVTG,,T,,M,0.10,N,0.19,K,A*34
$GNRMC,101349.00,A,5546.3252867,N,03740.2454448,E,0.15,,190220,,,A*5E
$GNGGA,101349.00,5546.3252867,N,03740.2454448,E,1,07,1.1,143.711,M,14.595,M,0.0,*5A
$GPGSA,A,3,13,28,30,,,,,,,,,,0.0,0.0,0.0*39
$GLGSA,A,3,66,76,,,,,,,,,,,0.0,0.0,0.0*2F
$GAGSA,A,3,03,25,,,,,,,,,,,0.0,0.0,0.0*27
$GPGSV,1,1,03,13,64,274,35,28,69,179,50,30,64,101,50,,,,,1*5B
$GLGSV,1,1,02,66,38,205,43,76,74,035,44,,,,,,,,,1*75
$GAGSV,1,1,02,03,57,247,41,25,66,229,48,,,,,,,,,7*76
$GNGST,101349.00,0.231,,,,4.603,9.084,29.214*51
$GNVTG,,T,,M,0.15,N,0.27,K,A*3C
$GNRMC,101349.20,A,5546.3252215,N,03740.2455360,E,0.11,,190220,,,A*5B
$GNGGA,101349.20,5546.3252215,N,03740.2455360,E,1,07,1.1,143.875,M,14.595,M,0.0,*56
$GPGSA,A,3,13,28,30,,,,,,,,,,0.0,0.0,0.0*39
$GLGSA,A,3,66,76,,,,,,,,,,,0.0,0.0,0.0*2F
$GAGSA,A,3,03,25,,,,,,,,,,,0.0,0.0,0.0*27
$GPGSV,1,1,03,13,64,274,35,28,69,179,51,30,64,101,50,,,,,1*5A
$GLGSV,1,1,02,66,38,205,44,76,74,035,44,,,,,,,,,1*72
$GAGSV,1,1,02,03,57,247,41,25,66,229,48,,,,,,,,,7*76
$GNGST,101349.20,0.243,,,,4.603,9.085,29.211*52
$GNVTG,,T,,M,0.11,N,0.20,K,A*3F
$GNRMC,101349.40,A,5546.3251666,N,03740.2456207,E,0.17,,190220,,,A*5B
$GNGGA,101349.40,5546.3251666,N,03740.2456207,E,1,07,1.1,143.949,M,14.595,M,0.0,*5E
$GPGSA,A,3,13,28,30,,,,,,,,,,0.0,0.0,0.0*39
$GLGSA,A,3,66,76,,,,,,,,,,,0.0,0.0,0.0*2F
$GAGSA,A,3,03,25,,,,,,,,,,,0.0,0.0,0.0*27
$GPGSV,1,1,03,13,64,274,35,28,69,179,51,30,64,101,50,,,,,1*5A
$GLGSV,1,1,02,66,38,205,44,76,74,035,44,,,,,,,,,1*72
$GAGSV,1,1,02,03,57,247,41,25,66,229,48,,,,,,,,,7*76
$GNGST,101349.40,0.202,,,,4.602,9.085,29.209*59
$GNVTG,,T,,M,0.17,N,0.32,K,A*3A
$GNRMC,101349.60,A,5546.3251330,N,03740.2456536,E,0.06,,190220,,,A*5A
$GNGGA,101349.60,5546.3251330,N,03740.2456536,E,1,07,1.1,144.028,M,14.595,M,0.0,*56
$GPGSA,A,3,13,28,30,,,,,,,,,,0.0,0.0,0.0*39
$GLGSA,A,3,66,76,,,,,,,,,,,0.0,0.0,0.0*2F
$GAGSA,A,3,03,25,,,,,,,,,,,0.0,0.0,0.0*27
$GPGSV,1,1,03,13,64,274,35,28,69,179,51,30,64,101,50,,,,,1*5A
$GLGSV,1,1,02,66,38,205,44,76,74,035,44,,,,,,,,,1*72
$GAGSV,1,1,02,03,57,247,41,25,66,229,48,,,,,,,,,7*76
$GNGST,101349.60,0.115,,,,4.602,9.085,29.206*51
$GNVTG,,T,,M,0.06,N,0.11,K,A*3B
$GNRMC,101349.80,A,5546.3251029,N,03740.2456880,E,0.12,,190220,,,A*5A
$GNGGA,101349.80,5546.3251029,N,03740.2456880,E,1,07,1.1,144.074,M,14.595,M,0.0,*5A
$GPGSA,A,3,13,28,30,,,,,,,,,,0.0,0.0,0.0*39
$GLGSA,A,3,66,76,,,,,,,,,,,0.0,0.0,0.0*2F
$GAGSA,A,3,03,25,,,,,,,,,,,0.0,0.0,0.0*27
$GPGSV,1,1,03,13,64,274,35,28,69,179,51,30,64,101,50,,,,,1*5A
$GLGSV,1,1,02,66,38,205,44,76,74,035,44,,,,,,,,,1*72
$GAGSV,1,1,02,03,57,247,41,25,66,229,48,,,,,,,,,7*76
$GNGST,101349.80,0.129,,,,4.602,9.085,29.204*52
$GNVTG,,T,,M,0.12,N,0.23,K,A*3F
$GNRMC,101350.00,A,5546.3250785,N,03740.2457211,E,0.13,,190220,,,A*58
$GNGGA,101350.00,5546.3250785,N,03740.2457211,E,1,07,1.1,144.107,M,14.595,M,0.0,*5C
$GPGSA,A,3,13,28,30,,,,,,,,,,0.0,0.0,0.0*39
$GLGSA,A,3,66,76,,,,,,,,,,,0.0,0.0,0.0*2F
$GAGSA,A,3,03,25,,,,,,,,,,,0.0,0.0,0.0*27
$GPGSV,1,1,03,13,64,274,35,28,69,179,51,30,64,101,50,,,,,1*5A
$GLGSV,1,1,02,66,38,205,45,76,74,035,44,,,,,,,,,1*73
$GAGSV,1,1,02,03,57,247,42,25,66,229,48,,,,,,,,,7*75
$GNGST,101350.00,0.110,,,,4.601,9.086,29.202*5E
$GNVTG,,T,,M,0.13,N,0.23,K,A*3E
$GNRMC,101350.20,A,5546.3250477,N,03740.2457609,E,0.10,,190220,,,A*5A
$GNGGA,101350.20,5546.3250477,N,03740.2457609,E,1,07,1.1,144.183,M,14.595,M,0.0,*51
$GPGSA,A,3,13,28,30,,,,,,,,,,0.0,0.0,0.0*39
$GLGSA,A,3,66,76,,,,,,,,,,,0.0,0.0,0.0*2F
$GAGSA,A,3,03,25,,,,,,,,,,,0.0,0.0,0.0*27
$GPGSV,1,1,03,13,64,274,35,28,69,179,51,30,64,101,50,,,,,1*5A
$GLGSV,1,1,02,66,38,205,45,76,74,035,44,,,,,,,,,1*73
$GAGSV,1,1,02,03,57,247,42,25,66,229,48,,,,,,,,,7*75
$GNGST,101350.20,0.140,,,,4.601,9.086,29.199*58
$GNVTG,,T,,M,0.10,N,0.19,K,A*34
$GNRMC,101350.40,A,5546.3250043,N,03740.2458202,E,0.12,,190220,,,A*5D
$GNGGA,101350.40,5546.3250043,N,03740.2458202,E,1,07,1.1,144.283,M,14.595,M,0.0,*57
$GPGSA,A,3,13,28,30,,,,,,,,,,0.0,0.0,0.0*39
$GLGSA,A,3,66,76,,,,,,,,,,,0.0,0.0,0.0*2F
$GAGSA,A,3,03,25,,,,,,,,,,,0.0,0.0,0.0*27
$GPGSV,1,1,03,13,64,274,35,28,69,179,51,30,64,101,50,,,,,1*5A
$GLGSV,1,1,02,66,38,205,45,76,74,035,44,,,,,,,,,1*73
$GAGSV,1,1,02,03,57,247,42,25,66,229,48,,,,,,,,,7*75
$GNGST,101350.40,0.217,,,,4.601,9.086,29.197*51
$GNVTG,,T,,M,0.12,N,0.22,K,A*3E
$GNRMC,101350.60,A,5546.3249803,N,03740.2458484,E,0.13,,190220,,,A*52
$GNGGA,101350.60,5546.3249803,N,03740.2458484,E,1,07,1.1,144.343,M,14.595,M,0.0,*54
$GPGSA,A,3,13,28,30,,,,,,,,,,0.0,0.0,0.0*39
$GLGSA,A,3,66,76,,,,,,,,,,,0.0,0.0,0.0*2F
$GAGSA,A,3,03,25,,,,,,,,,,,0.0,0.0,0.0*27
$GPGSV,1,1,03,13,64,274,35,28,69,179,51,30,64,101,50,,,,,1*5A
$GLGSV,1,1,02,66,38,205,45,76,74,035,44,,,,,,,,,1*73
$GAGSV,1,1,02,03,57,247,42,25,66,229,48,,,,,,,,,7*75
$GNGST,101350.60,0.132,,,,4.600,9.087,29.194*54
$GNVTG,,T,,M,0.13,N,0.24,K,A*39
$GNRMC,101350.80,A,5546.3249779,N,03740.2458325,E,0.11,,190220,,,A*50
$GNGGA,101350.80,5546.3249779,N,03740.2458325,E,1,06,1.1,144.381,M,14.595,M,0.0,*5B
$GPGSA,A,3,28,30,,,,,,,,,,,0.0,0.0,0.0*3B
$GLGSA,A,3,66,76,,,,,,,,,,,0.0,0.0,0.0*2F
$GAGSA,A,3,03,25,,,,,,,,,,,0.0,0.0,0.0*27
$GPGSV,1,1,02,28,69,179,51,30,64,101,50,,,,,,,,,1*6C
$GLGSV,1,1,02,66,38,205,45,76,74,035,44,,,,,,,,,1*73
$GAGSV,1,1,02,03,57,247,42,25,66,229,48,,,,,,,,,7*75
$GNGST,101350.80,0.000,,,,14.227,16.204,31.921*52
$GNVTG,,T,,M,0.11,N,0.21,K,A*3E
$GNRMC,101351.00,A,5546.3249760,N,03740.2458069,E,0.06,,190220,,,A*5C
$GNGGA,101351.00,5546.3249760,N,03740.2458069,E,1,06,1.1,144.407,M,14.595,M,0.0,*58
$GPGSA,A,3,28,30,,,,,,,,,,,0.0,0.0,0.0*3B
$GLGSA,A,3,66,76,,,,,,,,,,,0.0,0.0,0.0*2F
$GAGSA,A,3,03,25,,,,,,,,,,,0.0,0.0,0.0*27
$GPGSV,1,1,02,28,69,179,51,30,64,101,50,,,,,,,,,1*6C
$GLGSV,1,1,02,66,38,205,45,76,74,035,44,,,,,,,,,1*73
$GAGSV,1,1,02,03,57,247,42,25,66,229,48,,,,,,,,,7*75
$GNGST,101351.00,0.000,,,,14.227,16.205,31.919*51
$GNVTG,,T,,M,0.06,N,0.12,K,A*38
$GNRMC,101351.20,A,5546.3249704,N,03740.2457939,E,0.15,,190220,,,A*5D
$GNGGA,101351.20,5546.3249704,N,03740.2457939,E,1,06,1.1,144.449,M,14.595,M,0.0,*51
$GPGSA,A,3,28,30,,,,,,,,,,,0.0,0.0,0.0*3B
$GLGSA,A,3,66,76,,,,,,,,,,,0.0,0.0,0.0*2F
$GAGSA,A,3,03,25,,,,,,,,,,,0.0,0.0,0.0*27
$GPGSV,1,1,02,28,69,179,51,30,64,101,50,,,,,,,,,1*6C
$GLGSV,1,1,02,66,38,205,45,76,74,035,44,,,,,,,,,1*73
$GAGSV,1,1,02,03,57,247,42,25,66,229,48,,,,,,,,,7*75
$GNGST,101351.20,0.000,,,,14.227,16.206,31.917*5E
$GNVTG,,T,,M,0.15,N,0.27,K,A*3C
$GNRMC,101351.40,A,5546.3249619,N,03740.2457767,E,0.07,,190220,,,A*50
$GNGGA,101351.40,5546.3249619,N,03740.2457767,E,1,06,1.1,144.504,M,14.595,M,0.0,*57
$GPGSA,A,3,28,30,,,,,,,,,,,0.0,0.0,0.0*3B
$GLGSA,A,3,66,76,,,,,,,,,,,0.0,0.0,0.0*2F
$GAGSA,A,3,03,25,,,,,,,,,,,0.0,0.0,0.0*27
$GPGSV,1,1,02,28,69,179,51,30,64,101,50,,,,,,,,,1*6C
$GLGSV,1,1,02,66,38,205,45,76,74,035,45,,,,,,,,,1*72
$GAGSV,1,1,02,03,57,247,42,25,66,229,48,,,,,,,,,7*75
$GNGST,101351.40,0.000,,,,14.227,16.207,31.915*5B
$GNVTG,,T,,M,0.07,N,0.13,K,A*38
$GNRMC,101351.60,A,5546.3249571,N,03740.2457633,E,0.11,,190220,,,A*58
$GNGGA,101351.60,5546.3249571,N,03740.2457633,E,1,06,1.1,144.533,M,14.595,M,0.0,*5C
$GPGSA,A,3,28,30,,,,,,,,,,,0.0,0.0,0.0*3B
$GLGSA,A,3,66,76,,,,,,,,,,,0.0,0.0,0.0*2F
$GAGSA,A,3,03,25,,,,,,,,,,,0.0,0.0,0.0*27
$GPGSV,1,1,02,28,69,179,51,30,64,101,50,,,,,,,,,1*6C
$GLGSV,1,1,02,66,38,205,45,76,74,035,45,,,,,,,,,1*72
$GAGSV,1,1,02,03,57,247,41,25,66,229,48,,,,,,,,,7*76
$GNGST,101351.60,0.000,,,,14.227,16.208,31.913*50
$GNVTG,,T,,M,0.11,N,0.20,K,A*3F
$GNRMC,101351.80,A,5546.3249553,N,03740.2457410,E,0.09,,190220,,,A*5C
$GNGGA,101351.80,5546.3249553,N,03740.2457410,E,1,06,1.1,144.557,M,14.595,M,0.0,*53
$GPGSA,A,3,28,30,,,,,,,,,,,0.0,0.0,0.0*3B
$GLGSA,A,3,66,76,,,,,,,,,,,0.0,0.0,0.0*2F
$GAGSA,A,3,03,25,,,,,,,,,,,0.0,0.0,0.0*27
$GPGSV,1,1,02,28,69,179,51,30,64,101,50,,,,,,,,,1*6C
$GLGSV,1,1,02,66,38,205,45,76,74,035,45,,,,,,,,,1*72
$GAGSV,1,1,02,03,57,247,41,25,66,229,48,,,,,,,,,7*76
$GNGST,101351.80,0.000,,,,14.227,16.209,31.912*5E
$GNVTG,,T,,M,0.09,N,0.16,K,A*33
$GNRMC,101352.00,A,5546.3249592,N,03740.2457062,E,0.10,,190220,,,A*53
$GNGGA,101352.00,5546.3249592,N,03740.2457062,E,1,06,1.1,144.578,M,14.595,M,0.0,*59
$GPGSA,A,3,28,30,,,,,,,,,,,0.0,0.0,0.0*3B
$GLGSA,A,3,66,76,,,,,,,,,,,0.0,0.0,0.0*2F
$GAGSA,A,3,03,25,,,,,,,,,,,0.0,0.0,0.0*27
$GPGSV,1,1,02,28,69,179,51,30,64,101,50,,,,,,,,,1*6C
$GLGSV,1,1,02,66,38,205,45,76,74,035,45,,,,,,,,,1*72
$GAGSV,1,1,02,03,57,247,41,25,66,229,48,,,,,,,,,7*76
$GNGST,101352.00,0.000,,,,14.227,16.210,31.910*5F
$GNVTG,,T,,M,0.10,N,0.18,K,A*35
$GNRMC,101352.20,A,5546.3249656,N,03740.2456745,E,0.13,,190220,,,A*5A
$GNGGA,101352.20,5546.3249656,N,03740.2456745,E,1,06,1.1,144.572,M,14.595,M,0.0,*59
$GPGSA,A,3,28,30,,,,,,,,,,,0.0,0.0,0.0*3B
$GLGSA,A,3,66,76,,,,,,,,,,,0.0,0.0,0.0*2F
$GAGSA,A,3,03,25,,,,,,,,,,,0.0,0.0,0.0*27
$GPGSV,1,1,02,28,69,179,51,30,64,101,50,,,,,,,,,1*6C
$GLGSV,1,1,02,66,38,205,45,76,74,035,45,,,,,,,,,1*72
$GAGSV,1,1,02,03,57,247,41,25,66,229,48,,,,,,,,,7*76
$GNGST,101352.20,0.000,,,,14.227,16.210,31.908*54
$GNVTG,,T,,M,0.13,N,0.23,K,A*3E
$GNRMC,101352.40,A,5546.3249701,N,03740.2456418,E,0.07,,190220,,,A*51
$GNGGA,101352.40,5546.3249701,N,03740.2456418,E,1,06,1.1,144.593,M,14.595,M,0.0,*58
$GPGSA,A,3,28,30,,,,,,,,,,,0.0,0.0,0.0*3B
$GLGSA,A,3,66,76,,,,,,,,,,,0.0,0.0,0.0*2F
$GAGSA,A,3,03,25,,,,,,,,,,,0.0,0.0,0.0*27
$GPGSV,1,1,02,28,69,179,51,30,64,101,51,,,,,,,,,1*6D
$GLGSV,1,1,02,66,38,205,45,76,74,035,45,,,,,,,,,1*72
$GAGSV,1,1,02,03,57,247,41,25,66,229,48,,,,,,,,,7*76
$GNGST,101352.40,0.000,,,,14.227,16.211,31.906*5D
$GNVTG,,T,,M,0.07,N,0.13,K,A*38
$GNRMC,101352.60,A,5546.3249780,N,03740.2456145,E,0.13,,190220,,,A*52
$GNGGA,101352.60,5546.3249780,N,03740.2456145,E,1,06,1.1,144.593,M,14.595,M,0.0,*5E
$GPGSA,A,3,28,30,,,,,,,,,,,0.0,0.0,0.0*3B
$GLGSA,A,3,66,76,,,,,,,,,,,0.0,0.0,0.0*2F
$GAGSA,A,3,03,25,,,,,,,,,,,0.0,0.0,0.0*27
$GPGSV,1,1,02,28,69,179,51,30,64,101,51,,,,,,,,,1*6D
$GLGSV,1,1,02,66,38,205,45,76,74,035,45,,,,,,,,,1*72
$GAGSV,1,1,02,03,57,247,41,25,66,229,48,,,,,,,,,7*76
$GNGST,101352.60,0.000,,,,14.227,16.212,31.904*5E
$GNVTG,,T,,M,0.13,N,0.24,K,A*39
$GNRMC,101352.80,A,5546.3249876,N,03740.2455824,E,0.08,,190220,,,A*5D
$GNGGA,101352.80,5546.3249876,N,03740.2455824,E,1,06,1.1,144.585,M,14.595,M,0.0,*5C
$GPGSA,A,3,28,30,,,,,,,,,,,0.0,0.0,0.0*3B
$GLGSA,A,3,66,76,,,,,,,,,,,0.0,0.0,0.0*2F
$GAGSA,A,3,03,25,,,,,,,,,,,0.0,0.0,0.0*27
$GPGSV,1,1,02,28,69,179,51,30,64,101,51,,,,,,,,,1*6D
$GLGSV,1,1,02,66,38,205,44,76,74,035,45,,,,,,,,,1*73
$GAGSV,1,1,02,03,57,247,41,25,66,229,48,,,,,,,,,7*76
$GNGST,101352.80,0.000,,,,14.227,16.213,31.903*56
$GNVTG,,T,,M,0.08,N,0.15,K,A*31
$GNRMC,101353.00,A,5546.3249966,N,03740.2455488,E,0.11,,190220,,,A*56
$GNGGA,101353.00,5546.3249966,N,03740.2455488,E,1,06,1.1,144.588,M,14.595,M,0.0,*52
$GPGSA,A,3,28,30,,,,,,,,,,,0.0,0.0,0.0*3B
$GLGSA,A,3,66,76,,,,,,,,,,,0.0,0.0,0.0*2F
$GAGSA,A,3,03,25,,,,,,,,,,,0.0,0.0,0.0*27
$GPGSV,1,1,02,28,69,179,51,30,64,101,51,,,,,,,,,1*6D
$GLGSV,1,1,02,66,38,205,44,76,74,035,45,,,,,,,,,1*73
$GAGSV,1,1,02,03,57,247,41,25,66,229,48,,,,,,,,,7*76
$GNGST,101353.00,0.000,,,,14.227,16.214,31.901*5A
$GNVTG,,T,,M,0.11,N,0.21,K,A*3E
$GNRMC,101353.20,A,5546.3250038,N,03740.2455150,E,0.12,,190220,,,A*5D
$GNGGA,101353.20,5546.3250038,N,03740.2455150,E,1,06,1.1,144.588,M,14.595,M,0.0,*5A
$GPGSA,A,3,28,30,,,,,,,,,,,0.0,0.0,0.0*3B
$GLGSA,A,3,66,76,,,,,,,,,,,0.0,0.0,0.0*2F
$GAGSA,A,3,03,25,,,,,,,,,,,0.0,0.0,0.0*27
$GPGSV,1,1,02,28,69,179,51,30,64,101,51,,,,,,,,,1*6D
$GLGSV,1,1,02,66,38,205,44,76,74,035,45,,,,,,,,,1*73
$GAGSV,1,1,02,03,57,247,41,25,66,229,48,,,,,,,,,7*76
$GNGST,101353.20,0.000,,,,14.227,16.215,31.899*59
$GNVTG,,T,,M,0.12,N,0.22,K,A*3E
$GNRMC,101353.40,A,5546.3250089,N,03740.2454904,E,0.13,,190220,,,A*58
$GNGGA,101353.40,5546.3250089,N,03740.2454904,E,1,06,1.1,144.598,M,14.595,M,0.0,*5F
$GPGSA,A,3,28,30,,,,,,,,,,,0.0,0.0,0.0*3B
$GLGSA,A,3,66,76,,,,,,,,,,,0.0,0.0,0.0*2F
$GAGSA,A,3,03,25,,,,,,,,,,,0.0,0.0,0.0*27
$GPGSV,1,1,02,28,69,179,51,30,64,101,51,,,,,,,,,1*6D
$GLGSV,1,1,02,66,38,205,44,76,74,035,45,,,,,,,,,1*73
$GAGSV,1,1,02,03,57,247,41,25,66,229,48,,,,,,,,,7*76
$GNGST,101353.40,0.000,,,,14.227,16.216,31.897*52
$GNVTG,,T,,M,0.13,N,0.24,K,A*39
$GNRMC,101353.60,A,5546.3250178,N,03740.2454627,E,0.14,,190220,,,A*5C
$GNGGA,101353.60,5546.3250178,N,03740.2454627,E,1,06,1.1,144.586,M,14.595,M,0.0,*53
$GPGSA,A,3,28,30,,,,,,,,,,,0.0,0.0,0.0*3B
$GLGSA,A,3,66,76,,,,,,,,,,,0.0,0.0,0.0*2F
$GAGSA,A,3,03,25,,,,,,,,,,,0.0,0.0,0.0*27
$GPGSV,1,1,02,28,69,179,51,30,64,101,51,,,,,,,,,1*6D
$GLGSV,1,1,02,66,38,205,43,76,74,035,45,,,,,,,,,1*74
$GAGSV,1,1,02,03,57,247,41,25,66,229,48,,,,,,,,,7*76
$GNGST,101353.60,0.000,,,,14.227,16.217,31.895*53
$GNVTG,,T,,M,0.14,N,0.27,K,A*3D
$GNRMC,101353.80,A,5546.3250310,N,03740.2454317,E,0.10,,190220,,,A*5C
$GNGGA,101353.80,5546.3250310,N,03740.2454317,E,1,06,1.1,144.564,M,14.595,M,0.0,*5B
$GPGSA,A,3,28,30,,,,,,,,,,,0.0,0.0,0.0*3B
$GLGSA,A,3,66,76,,,,,,,,,,,0.0,0.0,0.0*2F
$GAGSA,A,3,03,25,,,,,,,,,,,0.0,0.0,0.0*27
$GPGSV,1,1,02,28,69,179,51,30,64,101,50,,,,,,,,,1*6C
$GLGSV,1,1,02,66,38,205,43,76,74,035,45,,,,,,,,,1*74
$GAGSV,1,1,02,03,57,247,41,25,66,229,48,,,,,,,,,7*76
$GNGST,101353.80,0.000,,,,14.227,16.218,31.894*53
$GNVTG,,T,,M,0.10,N,0.19,K,A*34
$GNRMC,101354.00,A,5546.3250452,N,03740.2453998,E,0.11,,190220,,,A*59
$GNGGA,101354.00,5546.3250452,N,03740.2453998,E,1,06,1.1,144.530,M,14.595,M,0.0,*5E
$GPGSA,A,3,28,30,,,,,,,,,,,0.0,0.0,0.0*3B
$GLGSA,A,3,66,76,,,,,,,,,,,0.0,0.0,0.0*2F
$GAGSA,A,3,03,25,,,,,,,,,,,0.0,0.0,0.0*27
$GPGSV,1,1,02,28,69,179,51,30,64,101,50,,,,,,,,,1*6C
$GLGSV,1,1,02,66,38,205,43,76,74,035,45,,,,,,,,,1*74
$GAGSV,1,1,02,03,57,247,41,25,66,229,48,,,,,,,,,7*76
$GNGST,101354.00,0.000,,,,14.227,16.219,31.892*5B
$GNVTG,,T,,M,0.11,N,0.20,K,A*3F
$GNRMC,101354.20,A,5546.3250602,N,03740.2453673,E,0.13,,190220,,,A*54
$GNGGA,101354.20,5546.3250602,N,03740.2453673,E,1,06,1.1,144.494,M,14.595,M,0.0,*5E
$GPGSA,A,3,28,30,,,,,,,,,,,0.0,0.0,0.0*3B
$GLGSA,A,3,66,76,,,,,,,,,,,0.0,0.0,0.0*2F
$GAGSA,A,3,03,25,,,,,,,,,,,0.0,0.0,0.0*27
$GPGSV,1,1,02,28,69,179,51,30,64,101,50,,,,,,,,,1*6C
$GLGSV,1,1,02,66,38,205,43,76,74,035,45,,,,,,,,,1*74
$GAGSV,1,1,02,03,57,247,41,25,66,229,48,,,,,,,,,7*76
$GNGST,101354.20,0.000,,,,14.227,16.220,31.890*51
$GNVTG,,T,,M,0.13,N,0.24,K,A*39
$GNRMC,101354.40,A,5546.3250724,N,03740.2453326,E,0.11,,190220,,,A*50
$GNGGA,101354.40,5546.3250724,N,03740.2453326,E,1,06,1.1,144.488,M,14.595,M,0.0,*55
$GPGSA,A,3,28,30,,,,,,,,,,,0.0,0.0,0.0*3B
$GLGSA,A,3,66,76,,,,,,,,,,,0.0,0.0,0.0*2F
$GAGSA,A,3,03,25,,,,,,,,,,,0.0,0.0,0.0*27
$GPGSV,1,1,02,28,69,179,51,30,64,101,50,,,,,,,,,1*6C
$GLGSV,1,1,02,66,38,205,43,76,74,035,45,,,,,,,,,1*74
$GAGSV,1,1,02,03,57,247,41,25,66,229,48,,,,,,,,,7*76
$GNGST,101354.40,0.000,,,,14.226,16.220,31.888*5F
$GNVTG,,T,,M,0.11,N,0.21,K,A*3E
$GNRMC,101354.60,A,5546.3250821,N,03740.2453040,E,0.12,,190220,,,A*58
$GNGGA,101354.60,5546.3250821,N,03740.2453040,E,1,06,1.1,144.482,M,14.595,M,0.0,*54
$GPGSA,A,3,28,30,,,,,,,,,,,0.0,0.0,0.0*3B
$GLGSA,A,3,66,76,,,,,,,,,,,0.0,0.0,0.0*2F
$GAGSA,A,3,03,25,,,,,,,,,,,0.0,0.0,0.0*27
$GPGSV,1,1,02,28,69,179,51,30,64,101,50,,,,,,,,,1*6C
$GLGSV,1,1,02,66,38,205,43,76,74,035,45,,,,,,,,,1*74
$GAGSV,1,1,02,03,57,247,41,25,66,229,48,,,,,,,,,7*76
$GNGST,101354.60,0.000,,,,14.226,16.221,31.887*53
$GNVTG,,T,,M,0.12,N,0.22,K,A*3E
$GNRMC,101354.80,A,5546.3250895,N,03740.2452775,E,0.08,,190220,,,A*52
$GNGGA,101354.80,5546.3250895,N,03740.2452775,E,1,06,1.1,144.468,M,14.595,M,0.0,*51
$GPGSA,A,3,28,30,,,,,,,,,,,0.0,0.0,0.0*3B
$GLGSA,A,3,66,76,,,,,,,,,,,0.0,0.0,0.0*2F
$GAGSA,A,3,03,25,,,,,,,,,,,0.0,0.0,0.0*27
$GPGSV,1,1,02,28,69,179,51,30,64,101,50,,,,,,,,,1*6C
$GLGSV,1,1,02,66,38,205,43,76,74,035,45,,,,,,,,,1*74
$GAGSV,1,1,02,03,57,247,41,25,66,229,48,,,,,,,,,7*76
$GNGST,101354.80,0.000,,,,14.226,16.222,31.885*5C
$GNVTG,,T,,M,0.08,N,0.15,K,A*31
$GNRMC,101355.00,A,5546.3250943,N,03740.2452575,E,0.09,,190220,,,A*52
$GNGGA,101355.00,5546.3250943,N,03740.2452575,E,1,06,1.1,144.456,M,14.595,M,0.0,*5D
$GPGSA,A,3,28,30,,,,,,,,,,,0.0,0.0,0.0*3B
$GLGSA,A,3,66,76,,,,,,,,,,,0.0,0.0,0.0*2F
$GAGSA,A,3,03,25,,,,,,,,,,,0.0,0.0,0.0*27
$GPGSV,1,1,02,28,69,179,51,30,64,101,50,,,,,,,,,1*6C
$GLGSV,1,1,02,66,38,205,42,76,74,035,45,,,,,,,,,1*75
$GAGSV,1,1,02,03,57,247,41,25,66,229,48,,,,,,,,,7*76
$GNGST,101355.00,0.000,,,,14.226,16.223,31.883*52
$GNVTG,,T,,M,0.09,N,0.16,K,A*33
$GNRMC,101355.20,A,5546.3251004,N,03740.2452369,E,0.10,,190220,,,A*58
$GNGGA,101355.20,5546.3251004,N,03740.2452369,E,1,06,1.1,144.444,M,14.595,M,0.0,*5C
$GPGSA,A,3,28,30,,,,,,,,,,,0.0,0.0,0.0*3B
$GLGSA,A,3,66,76,,,,,,,,,,,0.0,0.0,0.0*2F
$GAGSA,A,3,03,25,,,,,,,,,,,0.0,0.0,0.0*27
$GPGSV,1,1,02,28,69,179,51,30,64,101,50,,,,,,,,,1*6C
$GLGSV,1,1,02,66,38,205,42,76,74,035,45,,,,,,,,,1*75
$GAGSV,1,1,02,03,57,247,41,25,66,229,48,,,,,,,,,7*76
$GNGST,101355.20,0.000,,,,14.226,16.224,31.881*55
$GNVTG,,T,,M,0.10,N,0.18,K,A*35
$GNRMC,101355.40,A,5546.3251113,N,03740.2452029,E,0.08,,190220,,,A*57
$GNGGA,101355.40,5546.3251113,N,03740.2452029,E,1,06,1.1,144.410,M,14.595,M,0.0,*5B
$GPGSA,A,3,28,30,,,,,,,,,,,0.0,0.0,0.0*3B
$GLGSA,A,3,66,76,,,,,,,,,,,0.0,0.0,0.0*2F
$GAGSA,A,3,03,25,,,,,,,,,,,0.0,0.0,0.0*27
$GPGSV,1,1,02,28,69,179,51,30,64,101,50,,,,,,,,,1*6C
$GLGSV,1,1,02,66,38,205,42,76,74,035,45,,,,,,,,,1*75
$GAGSV,1,1,02,03,57,247,41,25,66,229,48,,,,,,,,,7*76
$GNGST,101355.40,0.000,,,,14.226,16.225,31.879*55
$GNVTG,,T,,M,0.08,N,0.15,K,A*31
$GNRMC,101355.60,A,5546.3251217,N,03740.2451681,E,0.05,,190220,,,A*58
$GNGGA,101355.60,5546.3251217,N,03740.2451681,E,1,06,1.1,144.378,M,14.595,M,0.0,*50
$GPGSA,A,3,28,30,,,,,,,,,,,0.0,0.0,0.0*3B
$GLGSA,A,3,66,76,,,,,,,,,,,0.0,0.0,0.0*2F
$GAGSA,A,3,03,25,,,,,,,,,,,0.0,0.0,0.0*27
$GPGSV,1,1,02,28,69,179,51,30,64,101,50,,,,,,,,,1*6C
$GLGSV,1,1,02,66,38,205,43,76,74,035,45,,,,,,,,,1*74
$GAGSV,1,1,02,03,57,247,41,25,66,229,48,,,,,,,,,7*76
$GNGST,101355.60,0.000,,,,14.226,16.226,31.878*55
$GNVTG,,T,,M,0.05,N,0.09,K,A*31
$GNRMC,101355.80,A,5546.3251348,N,03740.2451369,E,0.10,,190220,,,A*5A
$GNGGA,101355.80,5546.3251348,N,03740.2451369,E,1,06,1.1,144.338,M,14.595,M,0.0,*52
$GPGSA,A,3,28,30,,,,,,,,,,,0.0,0.0,0.0*3B
$GLGSA,A,3,66,76,,,,,,,,,,,0.0,0.0,0.0*2F
$GAGSA,A,3,03,25,,,,,,,,,,,0.0,0.0,0.0*27
$GPGSV,1,1,02,28,69,179,51,30,64,101,50,,,,,,,,,1*6C
$GLGSV,1,1,02,66,38,205,43,76,74,035,45,,,,,,,,,1*74
$GAGSV,1,1,02,03,57,247,41,25,66,229,48,,,,,,,,,7*76
$GNGST,101355.80,0.000,,,,14.226,16.227,31.876*54
$GNVTG,,T,,M,0.10,N,0.19,K,A*34
$GNRMC,101356.00,A,5546.3251432,N,03740.2451165,E,0.10,,190220,,,A*55
$GNGGA,101356.00,5546.3251432,N,03740.2451165,E,1,06,1.1,144.315,M,14.595,M,0.0,*52
$GPGSA,A,3,28,30,,,,,,,,,,,0.0,0.0,0.0*3B
$GLGSA,A,3,66,76,,,,,,,,,,,0.0,0.0,0.0*2F
$GAGSA,A,3,03,25,,,,,,,,,,,0.0,0.0,0.0*27
$GPGSV,1,1,02,28,69,179,51,30,64,101,50,,,,,,,,,1*6C
$GLGSV,1,1,02,66,38,205,43,76,74,035,45,,,,,,,,,1*74
$GAGSV,1,1,02,03,57,247,41,25,66,229,48,,,,,,,,,7*76
$GNGST,101356.00,0.000,,,,14.226,16.228,31.874*52
$GNVTG,,T,,M,0.10,N,0.19,K,A*34
$GNRMC,101356.20,A,5546.3251463,N,03740.2450997,E,0.10,,190220,,,A*57
$GNGGA,101356.20,5546.3251463,N,03740.2450997,E,1,06,1.1,144.320,M,14.595,M,0.0,*56
$GPGSA,A,3,28,30,,,,,,,,,,,0.0,0.0,0.0*3B
$GLGSA,A,3,66,76,,,,,,,,,,,0.0,0.0,0.0*2F
$GAGSA,A,3,03,25,,,,,,,,,,,0.0,0.0,0.0*27
$GPGSV,1,1,02,28,69,179,51,30,64,101,50,,,,,,,,,1*6C
$GLGSV,1,1,02,66,38,205,43,76,74,035,45,,,,,,,,,1*74
$GAGSV,1,1,02,03,57,247,41,25,66,229,48,,,,,,,,,7*76
$GNGST,101356.20,0.000,,,,14.226,16.229,31.872*57
$GNVTG,,T,,M,0.10,N,0.19,K,A*34
$GNRMC,101356.40,A,5546.3251528,N,03740.2450774,E,0.10,,190220,,,A*5C
$GNGGA,101356.40,5546.3251528,N,03740.2450774,E,1,06,1.1,144.319,M,14.595,M,0.0,*57
$GPGSA,A,3,28,30,,,,,,,,,,,0.0,0.0,0.0*3B
$GLGSA,A,3,66,76,,,,,,,,,,,0.0,0.0,0.0*2F
$GAGSA,A,3,03,25,,,,,,,,,,,0.0,0.0,0.0*27
$GPGSV,1,1,02,28,69,179,51,30,64,101,50,,,,,,,,,1*6C
$GLGSV,1,1,02,66,38,205,43,76,74,035,45,,,,,,,,,1*74
$GAGSV,1,1,02,03,57,247,41,25,66,229,48,,,,,,,,,7*76
$GNGST,101356.40,0.000,,,,14.226,16.229,31.870*53
$GNVTG,,T,,M,0.10,N,0.18,K,A*35
$GNRMC,101356.60,A,5546.3251625,N,03740.2450539,E,0.09,,190220,,,A*53
$GNGGA,101356.60,5546.3251625,N,03740.2450539,E,1,06,1.1,144.300,M,14.595,M,0.0,*58
$GPGSA,A,3,28,30,,,,,,,,,,,0.0,0.0,0.0*3B
$GLGSA,A,3,66,76,,,,,,,,,,,0.0,0.0,0.0*2F
$GAGSA,A,3,03,25,,,,,,,,,,,0.0,0.0,0.0*27
$GPGSV,1,1,02,28,69,179,51,30,64,101,50,,,,,,,,,1*6C
$GLGSV,1,1,02,66,38,205,43,76,74,035,45,,,,,,,,,1*74
$GAGSV,1,1,02,03,57,247,41,25,66,229,48,,,,,,,,,7*76
$GNGST,101356.60,0.000,,,,14.226,16.230,31.869*51
$GNVTG,,T,,M,0.09,N,0.17,K,A*32
$GNRMC,101356.80,A,5546.3251759,N,03740.2450287,E,0.10,,190220,,,A*5D
$GNGGA,101356.80,5546.3251759,N,03740.2450287,E,1,06,1.1,144.276,M,14.595,M,0.0,*5E
$GPGSA,A,3,28,30,,,,,,,,,,,0.0,0.0,0.0*3B
$GLGSA,A,3,66,76,,,,,,,,,,,0.0,0.0,0.0*2F
$GAGSA,A,3,03,25,,,,,,,,,,,0.0,0.0,0.0*27
$GPGSV,1,1,02,28,69,179,51,30,64,101,50,,,,,,,,,1*6C
$GLGSV,1,1,02,66,38,205,43,76,74,035,45,,,,,,,,,1*74
$GAGSV,1,1,02,03,57,247,41,25,66,229,48,,,,,,,,,7*76
$GNGST,101356.80,0.000,,,,14.226,16.231,31.867*50
$GNVTG,,T,,M,0.10,N,0.19,K,A*34
$GNRMC,101357.00,A,5546.3251933,N,03740.2449963,E,0.09,,190220,,,A*57
$GNGGA,101357.00,5546.3251933,N,03740.2449963,E,1,06,1.1,144.237,M,14.595,M,0.0,*59
$GPGSA,A,3,28,30,,,,,,,,,,,0.0,0.0,0.0*3B
$GLGSA,A,3,66,76,,,,,,,,,,,0.0,0.0,0.0*2F
$GAGSA,A,3,03,25,,,,,,,,,,,0.0,0.0,0.0*27
$GPGSV,1,1,02,28,69,179,51,30,64,101,50,,,,,,,,,1*6C
$GLGSV,1,1,02,66,38,205,43,76,74,035,46,,,,,,,,,1*77
$GAGSV,1,1,02,03,57,247,41,25,66,229,48,,,,,,,,,7*76
$GNGST,101357.00,0.000,,,,14.226,16.232,31.865*58
$GNVTG,,T,,M,0.09,N,0.17,K,A*32
$GNRMC,101357.20,A,5546.3252092,N,03740.2449733,E,0.13,,190220,,,A*54
$GNGGA,101357.20,5546.3252092,N,03740.2449733,E,1,06,1.1,144.186,M,14.595,M,0.0,*58
$GPGSA,A,3,28,30,,,,,,,,,,,0.0,0.0,0.0*3B
$GLGSA,A,3,66,76,,,,,,,,,,,0.0,0.0,0.0*2F
$GAGSA,A,3,03,25,,,,,,,,,,,0.0,0.0,0.0*27
$GPGSV,1,1,02,28,69,179,51,30,64,101,49,,,,,,,,,1*64
$GLGSV,1,1,02,66,38,205,43,76,74,035,45,,,,,,,,,1*74
$GAGSV,1,1,02,03,57,247,41,25,66,229,48,,,,,,,,,7*76
$GNGST,101357.20,0.000,,,,14.226,16.233,31.863*5D
$GNVTG,,T,,M,0.13,N,0.24,K,A*39
$GNRMC,101357.40,A,5546.3252280,N,03740.2449438,E,0.10,,190220,,,A*58
$GNGGA,101357.40,5546.3252280,N,03740.2449438,E,1,06,1.1,144.145,M,14.595,M,0.0,*58
$GPGSA,A,3,28,30,,,,,,,,,,,0.0,0.0,0.0*3B
$GLGSA,A,3,66,76,,,,,,,,,,,0.0,0.0,0.0*2F
$GAGSA,A,3,03,25,,,,,,,,,,,0.0,0.0,0.0*27
$GPGSV,1,1,02,28,69,179,51,30,64,101,49,,,,,,,,,1*64
$GLGSV,1,1,02,66,38,205,42,76,74,035,45,,,,,,,,,1*75
$GAGSV,1,1,02,03,57,247,41,25,66,229,48,,,,,,,,,7*76
$GNGST,101357.40,0.000,,,,14.226,16.234,31.862*5D
$GNVTG,,T,,M,0.10,N,0.19,K,A*34
$GNRMC,101357.60,A,5546.3252504,N,03740.2449140,E,0.11,,190220,,,A*5A
$GNGGA,101357.60,5546.3252504,N,03740.2449140,E,1,06,1.1,144.095,M,14.595,M,0.0,*57
$GPGSA,A,3,28,30,,,,,,,,,,,0.0,0.0,0.0*3B
$GLGSA,A,3,66,76,,,,,,,,,,,0.0,0.0,0.0*2F
$GAGSA,A,3,03,25,,,,,,,,,,,0.0,0.0,0.0*27
$GPGSV,1,1,02,28,69,179,51,30,64,101,49,,,,,,,,,1*64
$GLGSV,1,1,02,66,38,205,42,76,74,035,45,,,,,,,,,1*75
$GAGSV,1,1,02,03,57,247,41,25,66,229,48,,,,,,,,,7*76
$GNGST,101357.60,0.000,,,,14.226,16.235,31.860*5C
$GNVTG,,T,,M,0.11,N,0.21,K,A*3E
$GNRMC,101357.80,A,5546.3252671,N,03740.2448911,E,0.09,,190220,,,A*51
$GNGGA,101357.80,5546.3252671,N,03740.2448911,E,1,06,1.1,144.042,M,14.595,M,0.0,*5F
$GPGSA,A,3,28,30,,,,,,,,,,,0.0,0.0,0.0*3B
$GLGSA,A,3,66,76,,,,,,,,,,,0.0,0.0,0.0*2F
$GAGSA,A,3,03,25,,,,,,,,,,,0.0,0.0,0.0*27
$GPGSV,1,1,02,28,69,179,51,30,64,101,49,,,,,,,,,1*64
$GLGSV,1,1,02,66,38,205,42,76,74,035,45,,,,,,,,,1*75
$GAGSV,1,1,02,03,57,247,41,25,66,229,48,,,,,,,,,7*76
$GNGST,101357.80,0.000,,,,14.226,16.236,31.858*5A
$GNVTG,,T,,M,0.09,N,0.17,K,A*32
$GNRMC,101358.00,A,5546.3252880,N,03740.2448666,E,0.09,,190220,,,A*59
$GNGGA,101358.00,5546.3252880,N,03740.2448666,E,1,06,1.1,143.966,M,14.595,M,0.0,*5F
$GPGSA,A,3,28,30,,,,,,,,,,,0.0,0.0,0.0*3B
$GLGSA,A,3,66,76,,,,,,,,,,,0.0,0.0,0.0*2F
$GAGSA,A,3,03,25,,,,,,,,,,,0.0,0.0,0.0*27
$GPGSV,1,1,02,28,69,179,51,30,64,101,49,,,,,,,,,1*64
$GLGSV,1,1,02,66,38,205,42,76,74,035,45,,,,,,,,,1*75
$GAGSV,1,1,02,03,57,247,41,25,66,229,48,,,,,,,,,7*76
$GNGST,101358.00,0.000,,,,14.226,16.237,31.856*52
$GNVTG,,T,,M,0.09,N,0.16,K,A*33
$GNRMC,101358.20,A,5546.3253120,N,03740.2448407,E,0.12,,190220,,,A*56
$GNGGA,101358.20,5546.3253120,N,03740.2448407,E,1,06,1.1,143.889,M,14.595,M,0.0,*5A
$GPGSA,A,3,28,30,,,,,,,,,,,0.0,0.0,0.0*3B
$GLGSA,A,3,66,76,,,,,,,,,,,0.0,0.0,0.0*2F
$GAGSA,A,3,03,25,,,,,,,,,,,0.0,0.0,0.0*27
$GPGSV,1,1,02,28,69,179,51,30,64,101,49,,,,,,,,,1*64
$GLGSV,1,1,02,66,38,205,42,76,74,035,45,,,,,,,,,1*75
$GAGSV,1,1,02,03,57,247,41,25,66,229,48,,,,,,,,,7*76
$GNGST,101358.20,0.000,,,,14.226,16.238,31.855*5C
$GNVTG,,T,,M,0.12,N,0.22,K,A*3E
$GNRMC,101358.40,A,5546.3253356,N,03740.2448037,E,0.05,,190220,,,A*52
$GNGGA,101358.40,5546.3253356,N,03740.2448037,E,1,06,1.1,143.819,M,14.595,M,0.0,*51
$GPGSA,A,3,28,30,,,,,,,,,,,0.0,0.0,0.0*3B
$GLGSA,A,3,66,76,,,,,,,,,,,0.0,0.0,0.0*2F
$GAGSA,A,3,03,25,,,,,,,,,,,0.0,0.0,0.0*27
$GPGSV,1,1,02,28,69,179,51,30,64,101,49,,,,,,,,,1*64
$GLGSV,1,1,02,66,38,205,42,76,74,035,45,,,,,,,,,1*75
$GAGSV,1,1,02,03,57,247,41,25,66,229,48,,,,,,,,,7*76
$GNGST,101358.40,0.000,,,,14.226,16.239,31.853*5D
$GNVTG,,T,,M,0.05,N,0.08,K,A*30
$GNRMC,101358.60,A,5546.3253600,N,03740.2447735,E,0.08,,190220,,,A*51
$GNGGA,101358.60,5546.3253600,N,03740.2447735,E,1,06,1.1,143.721,M,14.595,M,0.0,*5B
$GPGSA,A,3,28,30,,,,,,,,,,,0.0,0.0,0.0*3B
$GLGSA,A,3,66,76,,,,,,,,,,,0.0,0.0,0.0*2F
$GAGSA,A,3,03,25,,,,,,,,,,,0.0,0.0,0.0*27
$GPGSV,1,1,02,28,69,179,51,30,64,101,49,,,,,,,,,1*64
$GLGSV,1,1,02,66,38,205,42,76,74,035,45,,,,,,,,,1*75
$GAGSV,1,1,02,03,57,247,41,25,66,229,48,,,,,,,,,7*76
$GNGST,101358.60,0.000,,,,14.226,16.239,31.851*5D
$GNVTG,,T,,M,0.08,N,0.14,K,A*30
$GNRMC,101358.80,A,5546.3253900,N,03740.2447388,E,0.11,,190220,,,A*5A
$GNGGA,101358.80,5546.3253900,N,03740.2447388,E,1,06,1.1,143.635,M,14.595,M,0.0,*5C
$GPGSA,A,3,28,30,,,,,,,,,,,0.0,0.0,0.0*3B
$GLGSA,A,3,66,76,,,,,,,,,,,0.0,0.0,0.0*2F
$GAGSA,A,3,03,25,,,,,,,,,,,0.0,0.0,0.0*27
